{
  "version": 0.6,
  "generator": "Overpass API 0.7.62.7 375dc00a",
  "osm3s": {
    "timestamp_osm_base": "2026-06-08T17:02:30Z",
    "copyright": "The data included in this document is from www.openstreetmap.org. The data is made available under ODbL."
  },
  "elements": [

{
  "type": "node",
  "id": 279245665,
  "lat": -1.9512745,
  "lon": 30.0598357,
  "tags": {
    "addr:city": "Kigali",
    "addr:street": "Rue KN 78",
    "addr:street_1": "KN 80 Street",
    "amenity": "school",
    "check_date": "2023-04-19",
    "name": "École Belge",
    "name:fr": "École Belge"
  }
},
{
  "type": "node",
  "id": 293906765,
  "lat": -1.2555266,
  "lon": 29.9813725,
  "tags": {
    "addr:city": "NTC",
    "addr:county": "Kabale Municipality",
    "addr:district": "Kabale",
    "addr:parish": "Kirigime",
    "addr:subcounty": "Southern Division",
    "alt_name": "NTC Kabale",
    "amenity": "school",
    "isced:level": "2;3;4",
    "name": "Kabale National Teachers College",
    "source": "www.ubos.org",
    "source:date": "2010..2014",
    "wikidata": "Q22672714"
  }
},
{
  "type": "node",
  "id": 317412603,
  "lat": -2.1125194,
  "lon": 30.0678951,
  "tags": {
    "amenity": "school",
    "name": "Primary School",
    "name:en": "Primary School"
  }
},
{
  "type": "node",
  "id": 317416333,
  "lat": -2.1102255,
  "lon": 30.0644921,
  "tags": {
    "amenity": "school",
    "name": "Nelson Mandela Education Center",
    "name:en": "Nelson Mandela Education Center"
  }
},
{
  "type": "node",
  "id": 317416606,
  "lat": -2.1390079,
  "lon": 30.0819629,
  "tags": {
    "amenity": "school",
    "name": "Nyamata Secondary School",
    "name:en": "Nyamata Secondary School"
  }
},
{
  "type": "node",
  "id": 317420467,
  "lat": -2.1545148,
  "lon": 30.0967600,
  "tags": {
    "amenity": "school",
    "name": "Ecole Technique Nyamata",
    "name:en": "Nyamata Technical School",
    "name:fr": "Ecole Technique Nyamata"
  }
},
{
  "type": "node",
  "id": 317706497,
  "lat": -1.9565223,
  "lon": 30.1451056,
  "tags": {
    "amenity": "school",
    "name": "KIM",
    "name:fr": "KIM"
  }
},
{
  "type": "node",
  "id": 710268452,
  "lat": -1.9876921,
  "lon": 30.1006025,
  "tags": {
    "amenity": "school",
    "check_date": "2023-04-09",
    "name": "CGFK School",
    "name:en": "CGFK School",
    "name:fr": "École CGFK"
  }
},
{
  "type": "node",
  "id": 710685653,
  "lat": -1.9130329,
  "lon": 30.0871395,
  "tags": {
    "amenity": "school",
    "name": "Headmaster's Office",
    "name:en": "Headmaster's Office",
    "name:fr": "Bureau du Directeur"
  }
},
{
  "type": "node",
  "id": 710685775,
  "lat": -1.9129694,
  "lon": 30.0870711,
  "tags": {
    "amenity": "school",
    "name": "Computer Lab",
    "name:fr": "Salle informatique"
  }
},
{
  "type": "node",
  "id": 718927008,
  "lat": -1.9576255,
  "lon": 30.0943405,
  "tags": {
    "amenity": "school",
    "check_date": "2023-04-08",
    "name": "Kacyiru Secondary School",
    "name:en": "Kacyiru Secondary School",
    "name:fr": "École Secondaire de Kacyiru"
  }
},
{
  "type": "node",
  "id": 1235017124,
  "lat": -2.6704444,
  "lon": 28.8624444,
  "tags": {
    "amenity": "school",
    "attribution": "«Ces données géographiques proviennent du Référentiel Géographique Commun (www.rgc.cd).»",
    "name": "Ecole primaire Cihanda",
    "school:CD": "primaire",
    "source": "GPS",
    "source:date": "2010/04/21",
    "source_ref": "www.rgc.cd"
  }
},
{
  "type": "node",
  "id": 1235017362,
  "lat": -2.7692543,
  "lon": 28.9708822,
  "tags": {
    "amenity": "school",
    "attribution": "«Ces données géographiques proviennent du Référentiel Géographique Commun (www.rgc.cd).»",
    "name": "Centre d'alphabetistion Kamonyi",
    "source": "GPS",
    "source:date": "2006/02/01",
    "source_ref": "www.rgc.cd"
  }
},
{
  "type": "node",
  "id": 1235017597,
  "lat": -2.4989352,
  "lon": 28.8875337,
  "tags": {
    "amenity": "school",
    "attribution": "«Ces données géographiques proviennent du Référentiel Géographique Commun (www.rgc.cd).»",
    "name": "École Primaire Nguba",
    "name:fr": "École Primaire Nguba",
    "school:CD": "primaire",
    "source": "GPS",
    "source:date": "2010/04/21",
    "source_ref": "www.rgc.cd"
  }
},
{
  "type": "node",
  "id": 1237088092,
  "lat": -2.7905833,
  "lon": 28.9986944,
  "tags": {
    "amenity": "school",
    "attribution": "«Ces données géographiques proviennent du Référentiel Géographique Commun (www.rgc.cd).»",
    "name": "Ecole primaire Lubarika",
    "school:CD": "primaire",
    "source": "GPS",
    "source:date": "2006/02/01",
    "source_ref": "www.rgc.cd"
  }
},
{
  "type": "node",
  "id": 1237088177,
  "lat": -2.8230833,
  "lon": 28.9502500,
  "tags": {
    "amenity": "school",
    "attribution": "«Ces données géographiques proviennent du Référentiel Géographique Commun (www.rgc.cd).»",
    "name": "Ecole primaire Lubarika",
    "school:CD": "primaire",
    "source": "GPS",
    "source:date": "2006/02/01",
    "source_ref": "www.rgc.cd"
  }
},
{
  "type": "node",
  "id": 1237088500,
  "lat": -2.8224444,
  "lon": 28.9510000,
  "tags": {
    "amenity": "school",
    "attribution": "«Ces données géographiques proviennent du Référentiel Géographique Commun (www.rgc.cd).»",
    "name": "Centre d'alphabetistion Lubarika",
    "source": "GPS",
    "source:date": "2006/02/01",
    "source_ref": "www.rgc.cd"
  }
},
{
  "type": "node",
  "id": 1237088621,
  "lat": -2.8232409,
  "lon": 28.9586751,
  "tags": {
    "amenity": "school",
    "attribution": "«Ces données géographiques proviennent du Référentiel Géographique Commun (www.rgc.cd).»",
    "name": "Ecole primaire Lubarika",
    "school:CD": "primaire",
    "source": "GPS",
    "source:date": "2006/02/01",
    "source_ref": "www.rgc.cd"
  }
},
{
  "type": "node",
  "id": 1237088626,
  "lat": -2.8204444,
  "lon": 28.9423056,
  "tags": {
    "amenity": "school",
    "attribution": "«Ces données géographiques proviennent du Référentiel Géographique Commun (www.rgc.cd).»",
    "name": "Ecole primaire Lubarika",
    "school:CD": "primaire",
    "source": "GPS",
    "source:date": "2006/02/01",
    "source_ref": "www.rgc.cd"
  }
},
{
  "type": "node",
  "id": 1237088660,
  "lat": -2.7891667,
  "lon": 28.9991667,
  "tags": {
    "amenity": "school",
    "attribution": "«Ces données géographiques proviennent du Référentiel Géographique Commun (www.rgc.cd).»",
    "name": "Ecole primaire Lubarika",
    "school:CD": "primaire",
    "source": "GPS",
    "source:date": "2006/02/01",
    "source_ref": "www.rgc.cd"
  }
},
{
  "type": "node",
  "id": 1237088667,
  "lat": -2.7875278,
  "lon": 28.9983056,
  "tags": {
    "amenity": "school",
    "attribution": "«Ces données géographiques proviennent du Référentiel Géographique Commun (www.rgc.cd).»",
    "name": "Ecole primaire Lubarika",
    "school:CD": "primaire",
    "source": "GPS",
    "source:date": "2006/02/01",
    "source_ref": "www.rgc.cd"
  }
},
{
  "type": "node",
  "id": 1238147141,
  "lat": -2.1232111,
  "lon": 28.9149722,
  "tags": {
    "amenity": "school",
    "attribution": "«Ces données géographiques proviennent du Référentiel Géographique Commun (www.rgc.cd).»",
    "name": "Ecole primaire Ishovu",
    "school:CD": "primaire",
    "source": "GPS",
    "source:date": "2008/11/24",
    "source_ref": "www.rgc.cd"
  }
},
{
  "type": "node",
  "id": 1238147143,
  "lat": -2.0378140,
  "lon": 29.0708589,
  "tags": {
    "amenity": "school",
    "attribution": "«Ces données géographiques proviennent du Référentiel Géographique Commun (www.rgc.cd).»",
    "name": "Ecole primaire Nkola",
    "school:CD": "primaire",
    "source": "GPS",
    "source:date": "2008/11/20",
    "source_ref": "www.rgc.cd"
  }
},
{
  "type": "node",
  "id": 1238147144,
  "lat": -2.1815444,
  "lon": 29.0105611,
  "tags": {
    "amenity": "school",
    "attribution": "«Ces données géographiques proviennent du Référentiel Géographique Commun (www.rgc.cd).»",
    "name": "Ecole secondaire Inst Bushatiro",
    "source": "GPS",
    "source:date": "2008/11/27",
    "source_ref": "www.rgc.cd"
  }
},
{
  "type": "node",
  "id": 1238147146,
  "lat": -2.2045333,
  "lon": 29.0444694,
  "tags": {
    "amenity": "school",
    "attribution": "«Ces données géographiques proviennent du Référentiel Géographique Commun (www.rgc.cd).»",
    "name": "Ecole primaire Ushindi",
    "school:CD": "primaire",
    "source": "GPS",
    "source:date": "2008/12/04",
    "source_ref": "www.rgc.cd"
  }
},
{
  "type": "node",
  "id": 1238147147,
  "lat": -1.9919271,
  "lon": 29.0841695,
  "tags": {
    "amenity": "school",
    "attribution": "«Ces données géographiques proviennent du Référentiel Géographique Commun (www.rgc.cd).»",
    "name": "Ecole secondaire Inst Cagala",
    "source": "GPS",
    "source:date": "2008/11/21",
    "source_ref": "www.rgc.cd"
  }
},
{
  "type": "node",
  "id": 1238147148,
  "lat": -2.1185845,
  "lon": 28.8750756,
  "tags": {
    "amenity": "school",
    "attribution": "«Ces données géographiques proviennent du Référentiel Géographique Commun (www.rgc.cd).»",
    "name": "Ecole primaire Bogamanda",
    "school:CD": "primaire",
    "source": "GPS",
    "source:date": "2008/11/25",
    "source_ref": "www.rgc.cd"
  }
},
{
  "type": "node",
  "id": 1238147149,
  "lat": -2.2515611,
  "lon": 29.0193139,
  "tags": {
    "amenity": "school",
    "attribution": "«Ces données géographiques proviennent du Référentiel Géographique Commun (www.rgc.cd).»",
    "name": "Ecole primaire Lushindi",
    "school:CD": "primaire",
    "source": "GPS",
    "source:date": "2008/12/11",
    "source_ref": "www.rgc.cd"
  }
},
{
  "type": "node",
  "id": 1238147150,
  "lat": -2.1449972,
  "lon": 29.0270861,
  "tags": {
    "amenity": "school",
    "attribution": "«Ces données géographiques proviennent du Référentiel Géographique Commun (www.rgc.cd).»",
    "name": "École primaire Kabugo",
    "school:CD": "primaire",
    "source": "GPS",
    "source:date": "2008/11/26",
    "source_ref": "www.rgc.cd"
  }
},
{
  "type": "node",
  "id": 1238147152,
  "lat": -2.2189000,
  "lon": 29.0508694,
  "tags": {
    "amenity": "school",
    "attribution": "«Ces données géographiques proviennent du Référentiel Géographique Commun (www.rgc.cd).»",
    "name": "Ecole primaire Bauhanga I + Poste De Santt",
    "school:CD": "primaire",
    "source": "GPS",
    "source:date": "2008/12/11",
    "source_ref": "www.rgc.cd"
  }
},
{
  "type": "node",
  "id": 1238147153,
  "lat": -1.9220472,
  "lon": 28.9383139,
  "tags": {
    "amenity": "school",
    "attribution": "«Ces données géographiques proviennent du Référentiel Géographique Commun (www.rgc.cd).»",
    "name": "Ecole secondaire Inst Tumaini",
    "source": "GPS",
    "source:date": "2008/11/13",
    "source_ref": "www.rgc.cd"
  }
},
{
  "type": "node",
  "id": 1238147156,
  "lat": -2.1699194,
  "lon": 29.0376056,
  "tags": {
    "amenity": "school",
    "attribution": "«Ces données géographiques proviennent du Référentiel Géographique Commun (www.rgc.cd).»",
    "name": "École primaire Muhyahya",
    "school:CD": "primaire",
    "source": "GPS",
    "source:date": "2008/11/27",
    "source_ref": "www.rgc.cd"
  }
},
{
  "type": "node",
  "id": 1238147157,
  "lat": -1.8673028,
  "lon": 28.9920611,
  "tags": {
    "amenity": "school",
    "attribution": "«Ces données géographiques proviennent du Référentiel Géographique Commun (www.rgc.cd).»",
    "name": "Ecole secondaire Inst Agizo",
    "source": "GPS",
    "source:date": "2008/12/17",
    "source_ref": "www.rgc.cd"
  }
},
{
  "type": "node",
  "id": 1238147158,
  "lat": -2.1283694,
  "lon": 28.9155611,
  "tags": {
    "amenity": "school",
    "attribution": "«Ces données géographiques proviennent du Référentiel Géographique Commun (www.rgc.cd).»",
    "name": "Ecole primaire Misinga Cepac",
    "school:CD": "primaire",
    "source": "GPS",
    "source:date": "2008/11/24",
    "source_ref": "www.rgc.cd"
  }
},
{
  "type": "node",
  "id": 1238147159,
  "lat": -2.2285056,
  "lon": 29.0756417,
  "tags": {
    "amenity": "school",
    "attribution": "«Ces données géographiques proviennent du Référentiel Géographique Commun (www.rgc.cd).»",
    "name": "Ecole primaire Bulegeyi",
    "school:CD": "primaire",
    "source": "GPS",
    "source:date": "2008/12/02",
    "source_ref": "www.rgc.cd"
  }
},
{
  "type": "node",
  "id": 1238147160,
  "lat": -1.9617225,
  "lon": 29.0723446,
  "tags": {
    "amenity": "school",
    "attribution": "«Ces données géographiques proviennent du Référentiel Géographique Commun (www.rgc.cd).»",
    "name": "Ecole primaire Kanziraboba",
    "school:CD": "primaire",
    "source": "GPS",
    "source:date": "2008/11/20",
    "source_ref": "www.rgc.cd"
  }
},
{
  "type": "node",
  "id": 1238147163,
  "lat": -2.2550000,
  "lon": 29.0282278,
  "tags": {
    "amenity": "school",
    "attribution": "«Ces données géographiques proviennent du Référentiel Géographique Commun (www.rgc.cd).»",
    "name": "École primaire Mubale",
    "school:CD": "primaire",
    "source": "GPS",
    "source:date": "2008/12/11",
    "source_ref": "www.rgc.cd"
  }
},
{
  "type": "node",
  "id": 1238147164,
  "lat": -2.1780611,
  "lon": 29.0743750,
  "tags": {
    "amenity": "school",
    "attribution": "«Ces données géographiques proviennent du Référentiel Géographique Commun (www.rgc.cd).»",
    "name": "Ecole primaire Bukere I",
    "school:CD": "primaire",
    "source": "GPS",
    "source:date": "2008/12/05",
    "source_ref": "www.rgc.cd"
  }
},
{
  "type": "node",
  "id": 1238147168,
  "lat": -1.9896611,
  "lon": 29.0464563,
  "tags": {
    "amenity": "school",
    "attribution": "«Ces données géographiques proviennent du Référentiel Géographique Commun (www.rgc.cd).»",
    "name": "Ecole secondaire Inst Nyangola",
    "source": "GPS",
    "source:date": "2008/11/21",
    "source_ref": "www.rgc.cd"
  }
},
{
  "type": "node",
  "id": 1238147170,
  "lat": -2.2493056,
  "lon": 29.0257694,
  "tags": {
    "amenity": "school",
    "attribution": "«Ces données géographiques proviennent du Référentiel Géographique Commun (www.rgc.cd).»",
    "name": "Ecole primaire Mazina",
    "school:CD": "primaire",
    "source": "GPS",
    "source:date": "2008/12/11",
    "source_ref": "www.rgc.cd"
  }
},
{
  "type": "node",
  "id": 1238147172,
  "lat": -2.1232261,
  "lon": 28.9149989,
  "tags": {
    "amenity": "school",
    "attribution": "«Ces données géographiques proviennent du Référentiel Géographique Commun (www.rgc.cd).»",
    "name": "Centre d'alphabetistion P.A.A (projet D'alphabetisation Des Adultes)",
    "source": "GPS",
    "source:date": "2008/11/24",
    "source_ref": "www.rgc.cd"
  }
},
{
  "type": "node",
  "id": 1238147173,
  "lat": -2.2367083,
  "lon": 29.0737500,
  "tags": {
    "amenity": "school",
    "attribution": "«Ces données géographiques proviennent du Référentiel Géographique Commun (www.rgc.cd).»",
    "name": "Ecole primaire Boza",
    "school:CD": "primaire",
    "source": "GPS",
    "source:date": "2008/12/12",
    "source_ref": "www.rgc.cd"
  }
},
{
  "type": "node",
  "id": 1238147174,
  "lat": -2.2019833,
  "lon": 29.0680639,
  "tags": {
    "amenity": "school",
    "attribution": "«Ces données géographiques proviennent du Référentiel Géographique Commun (www.rgc.cd).»",
    "name": "Ecole primaire Mugote",
    "school:CD": "primaire",
    "source": "GPS",
    "source:date": "2008/11/27",
    "source_ref": "www.rgc.cd"
  }
},
{
  "type": "node",
  "id": 1238147175,
  "lat": -2.1037806,
  "lon": 28.9186028,
  "tags": {
    "amenity": "school",
    "attribution": "«Ces données géographiques proviennent du Référentiel Géographique Commun (www.rgc.cd).»",
    "name": "École primaire Ruharaga",
    "school:CD": "primaire",
    "source": "GPS",
    "source:date": "2008/11/26",
    "source_ref": "www.rgc.cd"
  }
},
{
  "type": "node",
  "id": 1238147176,
  "lat": -2.0506937,
  "lon": 29.0710895,
  "tags": {
    "amenity": "school",
    "attribution": "«Ces données géographiques proviennent du Référentiel Géographique Commun (www.rgc.cd).»",
    "name": "Ecole secondaire Inst Kahule",
    "source": "GPS",
    "source:date": "2008/11/10",
    "source_ref": "www.rgc.cd"
  }
},
{
  "type": "node",
  "id": 1238147177,
  "lat": -1.7673889,
  "lon": 28.9989444,
  "tags": {
    "amenity": "school",
    "attribution": "«Ces données géographiques proviennent du Référentiel Géographique Commun (www.rgc.cd).»",
    "name": "École primaire Bubale",
    "school:CD": "primaire",
    "source": "GPS",
    "source:date": "2008/12/17",
    "source_ref": "www.rgc.cd"
  }
},
{
  "type": "node",
  "id": 1238147179,
  "lat": -2.1027556,
  "lon": 28.9174639,
  "tags": {
    "amenity": "school",
    "attribution": "«Ces données géographiques proviennent du Référentiel Géographique Commun (www.rgc.cd).»",
    "name": "Ecole Lstd",
    "source": "GPS",
    "source:date": "2008/11/26",
    "source_ref": "www.rgc.cd"
  }
},
{
  "type": "node",
  "id": 1238147180,
  "lat": -2.0093880,
  "lon": 29.0569199,
  "tags": {
    "amenity": "school",
    "attribution": "«Ces données géographiques proviennent du Référentiel Géographique Commun (www.rgc.cd).»",
    "name": "Ecole primaire Cebumba",
    "school:CD": "primaire",
    "source": "GPS",
    "source:date": "2008/11/21",
    "source_ref": "www.rgc.cd"
  }
},
{
  "type": "node",
  "id": 1238147181,
  "lat": -1.7612774,
  "lon": 28.9871784,
  "tags": {
    "amenity": "school",
    "attribution": "«Ces données géographiques proviennent du Référentiel Géographique Commun (www.rgc.cd).»",
    "name": "Ecole secondaire Inst Bazoka",
    "source": "GPS",
    "source:date": "2008/12/17",
    "source_ref": "www.rgc.cd"
  }
},
{
  "type": "node",
  "id": 1238147183,
  "lat": -2.1074139,
  "lon": 28.9198250,
  "tags": {
    "amenity": "school",
    "attribution": "«Ces données géographiques proviennent du Référentiel Géographique Commun (www.rgc.cd).»",
    "name": "Ecole secondaire Inst Mbinga",
    "source": "GPS",
    "source:date": "2008/11/26",
    "source_ref": "www.rgc.cd"
  }
},
{
  "type": "node",
  "id": 1238147184,
  "lat": -2.1361972,
  "lon": 29.0241778,
  "tags": {
    "amenity": "school",
    "attribution": "«Ces données géographiques proviennent du Référentiel Géographique Commun (www.rgc.cd).»",
    "name": "Ecole primaire Ntambuka",
    "school:CD": "primaire",
    "source": "GPS",
    "source:date": "2008/11/26",
    "source_ref": "www.rgc.cd"
  }
},
{
  "type": "node",
  "id": 1238147186,
  "lat": -2.2411472,
  "lon": 29.0470222,
  "tags": {
    "amenity": "school",
    "attribution": "«Ces données géographiques proviennent du Référentiel Géographique Commun (www.rgc.cd).»",
    "name": "École primaire Nyakalengwa",
    "school:CD": "primaire",
    "source": "GPS",
    "source:date": "2008/12/11",
    "source_ref": "www.rgc.cd"
  }
},
{
  "type": "node",
  "id": 1238147187,
  "lat": -2.0904222,
  "lon": 29.0542028,
  "tags": {
    "amenity": "school",
    "attribution": "«Ces données géographiques proviennent du Référentiel Géographique Commun (www.rgc.cd).»",
    "name": "Ecole secondaire Inst Misimbwe",
    "source": "GPS",
    "source:date": "2008/11/11",
    "source_ref": "www.rgc.cd"
  }
},
{
  "type": "node",
  "id": 1238147188,
  "lat": -1.7609679,
  "lon": 28.9871136,
  "tags": {
    "amenity": "school",
    "attribution": "«Ces données géographiques proviennent du Référentiel Géographique Commun (www.rgc.cd).»",
    "name": "Ecole primaire Poste D'etat De Numbi",
    "school:CD": "primaire",
    "source": "GPS",
    "source:date": "2008/12/17",
    "source_ref": "www.rgc.cd"
  }
},
{
  "type": "node",
  "id": 1238147189,
  "lat": -2.3675361,
  "lon": 28.9444167,
  "tags": {
    "amenity": "school",
    "attribution": "«Ces données géographiques proviennent du Référentiel Géographique Commun (www.rgc.cd).»",
    "name": "Ecole primaire 3é Cbk Ibinja",
    "school:CD": "primaire",
    "source": "GPS",
    "source:date": "2008/11/21",
    "source_ref": "www.rgc.cd"
  }
},
{
  "type": "node",
  "id": 1238147190,
  "lat": -2.1640889,
  "lon": 29.0772667,
  "tags": {
    "amenity": "school",
    "attribution": "«Ces données géographiques proviennent du Référentiel Géographique Commun (www.rgc.cd).»",
    "name": "Ecole primaire Kabingu",
    "school:CD": "primaire",
    "source": "GPS",
    "source:date": "2008/11/25",
    "source_ref": "www.rgc.cd"
  }
},
{
  "type": "node",
  "id": 1238147193,
  "lat": -2.2041194,
  "lon": 29.0717306,
  "tags": {
    "amenity": "school",
    "attribution": "«Ces données géographiques proviennent du Référentiel Géographique Commun (www.rgc.cd).»",
    "name": "École primaire Cebumba",
    "school:CD": "primaire",
    "source": "GPS",
    "source:date": "2008/11/27",
    "source_ref": "www.rgc.cd"
  }
},
{
  "type": "node",
  "id": 1238147196,
  "lat": -2.1004861,
  "lon": 29.0448694,
  "tags": {
    "amenity": "school",
    "attribution": "«Ces données géographiques proviennent du Référentiel Géographique Commun (www.rgc.cd).»",
    "name": "Ecole primaire Salemu",
    "school:CD": "primaire",
    "source": "GPS",
    "source:date": "2008/11/11",
    "source_ref": "www.rgc.cd"
  }
},
{
  "type": "node",
  "id": 1238147197,
  "lat": -2.0940444,
  "lon": 29.0433444,
  "tags": {
    "amenity": "school",
    "attribution": "«Ces données géographiques proviennent du Référentiel Géographique Commun (www.rgc.cd).»",
    "name": "Ecole primaire Chikoma",
    "school:CD": "primaire",
    "source": "GPS",
    "source:date": "2008/11/11",
    "source_ref": "www.rgc.cd"
  }
},
{
  "type": "node",
  "id": 1238147199,
  "lat": -2.1948028,
  "lon": 29.0408194,
  "tags": {
    "amenity": "school",
    "attribution": "«Ces données géographiques proviennent du Référentiel Géographique Commun (www.rgc.cd).»",
    "name": "Ecole secondaire Inst Kalehe",
    "source": "GPS",
    "source:date": "2008/12/04",
    "source_ref": "www.rgc.cd"
  }
},
{
  "type": "node",
  "id": 1238147200,
  "lat": -2.0233417,
  "lon": 29.1019083,
  "tags": {
    "amenity": "school",
    "attribution": "«Ces données géographiques proviennent du Référentiel Géographique Commun (www.rgc.cd).»",
    "name": "Ecole primaire Kagingo",
    "school:CD": "primaire",
    "source": "GPS",
    "source:date": "2008/11/19",
    "source_ref": "www.rgc.cd"
  }
},
{
  "type": "node",
  "id": 1238147202,
  "lat": -2.0189389,
  "lon": 29.0933167,
  "tags": {
    "amenity": "school",
    "attribution": "«Ces données géographiques proviennent du Référentiel Géographique Commun (www.rgc.cd).»",
    "name": "Ecole secondaire Busobe",
    "source": "GPS",
    "source:date": "2008/11/20",
    "source_ref": "www.rgc.cd"
  }
},
{
  "type": "node",
  "id": 1238147203,
  "lat": -2.2171583,
  "lon": 29.0071361,
  "tags": {
    "amenity": "school",
    "attribution": "«Ces données géographiques proviennent du Référentiel Géographique Commun (www.rgc.cd).»",
    "name": "Centre d'alphabetistion Ruhekekuguma",
    "source": "GPS",
    "source:date": "2008/12/03",
    "source_ref": "www.rgc.cd"
  }
},
{
  "type": "node",
  "id": 1238147205,
  "lat": -2.2437611,
  "lon": 29.0647361,
  "tags": {
    "amenity": "school",
    "attribution": "«Ces données géographiques proviennent du Référentiel Géographique Commun (www.rgc.cd).»",
    "name": "Ecole secondaire Inst Kananyama",
    "source": "GPS",
    "source:date": "2008/12/12",
    "source_ref": "www.rgc.cd"
  }
},
{
  "type": "node",
  "id": 1238147206,
  "lat": -1.9229611,
  "lon": 28.9352833,
  "tags": {
    "amenity": "school",
    "attribution": "«Ces données géographiques proviennent du Référentiel Géographique Commun (www.rgc.cd).»",
    "name": "Ecole secondaire Inst Nyabibwe",
    "source": "GPS",
    "source:date": "2008/11/12",
    "source_ref": "www.rgc.cd"
  }
},
{
  "type": "node",
  "id": 1238147212,
  "lat": -2.0511806,
  "lon": 29.0713639,
  "tags": {
    "amenity": "school",
    "attribution": "«Ces données géographiques proviennent du Référentiel Géographique Commun (www.rgc.cd).»",
    "name": "Ecole primaire Kahule",
    "school:CD": "primaire",
    "source": "GPS",
    "source:date": "2008/11/10",
    "source_ref": "www.rgc.cd"
  }
},
{
  "type": "node",
  "id": 1238147213,
  "lat": -2.2066806,
  "lon": 29.0745694,
  "tags": {
    "amenity": "school",
    "attribution": "«Ces données géographiques proviennent du Référentiel Géographique Commun (www.rgc.cd).»",
    "name": "École primaire Bushake",
    "school:CD": "primaire",
    "source": "GPS",
    "source:date": "2008/11/27",
    "source_ref": "www.rgc.cd"
  }
},
{
  "type": "node",
  "id": 1238147214,
  "lat": -1.8808472,
  "lon": 28.9862833,
  "tags": {
    "amenity": "school",
    "attribution": "«Ces données géographiques proviennent du Référentiel Géographique Commun (www.rgc.cd).»",
    "name": "Ecole primaire Mukwija 5é Celpa",
    "school:CD": "primaire",
    "source": "GPS",
    "source:date": "2008/11/12",
    "source_ref": "www.rgc.cd"
  }
},
{
  "type": "node",
  "id": 1238147221,
  "lat": -2.0482694,
  "lon": 29.1094917,
  "tags": {
    "amenity": "school",
    "attribution": "«Ces données géographiques proviennent du Référentiel Géographique Commun (www.rgc.cd).»",
    "name": "Ecole secondaire Prolasa",
    "source": "GPS",
    "source:date": "2008/11/19",
    "source_ref": "www.rgc.cd"
  }
},
{
  "type": "node",
  "id": 1238147222,
  "lat": -2.0018944,
  "lon": 29.0872778,
  "tags": {
    "amenity": "school",
    "attribution": "«Ces données géographiques proviennent du Référentiel Géographique Commun (www.rgc.cd).»",
    "name": "Ecole secondaire Bulege",
    "source": "GPS",
    "source:date": "2008/11/19",
    "source_ref": "www.rgc.cd"
  }
},
{
  "type": "node",
  "id": 1238147224,
  "lat": -2.2552139,
  "lon": 29.0409194,
  "tags": {
    "amenity": "school",
    "attribution": "«Ces données géographiques proviennent du Référentiel Géographique Commun (www.rgc.cd).»",
    "name": "Ecole secondaire Inst Bihembe",
    "source": "GPS",
    "source:date": "2008/12/11",
    "source_ref": "www.rgc.cd"
  }
},
{
  "type": "node",
  "id": 1238147232,
  "lat": -2.1365417,
  "lon": 28.9238250,
  "tags": {
    "amenity": "school",
    "attribution": "«Ces données géographiques proviennent du Référentiel Géographique Commun (www.rgc.cd).»",
    "name": "Ecole primaire Musaga / Ishovu",
    "school:CD": "primaire",
    "source": "GPS",
    "source:date": "2008/11/24",
    "source_ref": "www.rgc.cd"
  }
},
{
  "type": "node",
  "id": 1238147235,
  "lat": -2.1658727,
  "lon": 29.0076625,
  "tags": {
    "amenity": "school",
    "attribution": "«Ces données géographiques proviennent du Référentiel Géographique Commun (www.rgc.cd).»",
    "name": "École primaire Buzibu",
    "school:CD": "primaire",
    "source": "GPS",
    "source:date": "2008/12/03",
    "source_ref": "www.rgc.cd"
  }
},
{
  "type": "node",
  "id": 1238147241,
  "lat": -2.1686361,
  "lon": 29.0303361,
  "tags": {
    "amenity": "school",
    "attribution": "«Ces données géographiques proviennent du Référentiel Géographique Commun (www.rgc.cd).»",
    "name": "École primaire Ciguli",
    "school:CD": "primaire",
    "source": "GPS",
    "source:date": "2008/11/27",
    "source_ref": "www.rgc.cd"
  }
},
{
  "type": "node",
  "id": 1238147244,
  "lat": -2.2440528,
  "lon": 29.0655389,
  "tags": {
    "amenity": "school",
    "attribution": "«Ces données géographiques proviennent du Référentiel Géographique Commun (www.rgc.cd).»",
    "name": "Ecole primaire Ruminika",
    "school:CD": "primaire",
    "source": "GPS",
    "source:date": "2008/12/12",
    "source_ref": "www.rgc.cd"
  }
},
{
  "type": "node",
  "id": 1238147250,
  "lat": -2.2255611,
  "lon": 29.0769194,
  "tags": {
    "amenity": "school",
    "attribution": "«Ces données géographiques proviennent du Référentiel Géographique Commun (www.rgc.cd).»",
    "name": "Ecole secondaire Inst Kagi",
    "source": "GPS",
    "source:date": "2008/12/02",
    "source_ref": "www.rgc.cd"
  }
},
{
  "type": "node",
  "id": 1238147256,
  "lat": -1.9653278,
  "lon": 29.0608056,
  "tags": {
    "amenity": "school",
    "attribution": "«Ces données géographiques proviennent du Référentiel Géographique Commun (www.rgc.cd).»",
    "name": "École primaire Casi / Mugunga",
    "school:CD": "primaire",
    "source": "GPS",
    "source:date": "2008/11/21",
    "source_ref": "www.rgc.cd"
  }
},
{
  "type": "node",
  "id": 1238147259,
  "lat": -2.2552028,
  "lon": 29.0282667,
  "tags": {
    "amenity": "school",
    "attribution": "«Ces données géographiques proviennent du Référentiel Géographique Commun (www.rgc.cd).»",
    "name": "Ecole secondaire Inst Mubale",
    "source": "GPS",
    "source:date": "2008/12/11",
    "source_ref": "www.rgc.cd"
  }
},
{
  "type": "node",
  "id": 1238147268,
  "lat": -2.2015611,
  "lon": 29.0680028,
  "tags": {
    "amenity": "school",
    "attribution": "«Ces données géographiques proviennent du Référentiel Géographique Commun (www.rgc.cd).»",
    "name": "Ecole secondaire Inst Kasongero",
    "source": "GPS",
    "source:date": "2008/11/27",
    "source_ref": "www.rgc.cd"
  }
},
{
  "type": "node",
  "id": 1238147277,
  "lat": -1.7862889,
  "lon": 28.8926528,
  "tags": {
    "amenity": "school",
    "attribution": "«Ces données géographiques proviennent du Référentiel Géographique Commun (www.rgc.cd).»",
    "name": "École secondaire Inst Rusogo",
    "source": "GPS",
    "source:date": "2008/12/17",
    "source_ref": "www.rgc.cd"
  }
},
{
  "type": "node",
  "id": 1238147287,
  "lat": -2.1897944,
  "lon": 28.9943528,
  "tags": {
    "amenity": "school",
    "attribution": "«Ces données géographiques proviennent du Référentiel Géographique Commun (www.rgc.cd).»",
    "name": "Ecole secondaire ITM Monvu",
    "source": "GPS",
    "source:date": "2008/12/03",
    "source_ref": "www.rgc.cd"
  }
},
{
  "type": "node",
  "id": 1238147288,
  "lat": -2.0979028,
  "lon": 28.8996833,
  "tags": {
    "amenity": "school",
    "attribution": "«Ces données géographiques proviennent du Référentiel Géographique Commun (www.rgc.cd).»",
    "name": "Ecole primaire Chibanja",
    "school:CD": "primaire",
    "source": "GPS",
    "source:date": "2008/11/23",
    "source_ref": "www.rgc.cd"
  }
},
{
  "type": "node",
  "id": 1238147293,
  "lat": -2.2437667,
  "lon": 29.0642778,
  "tags": {
    "amenity": "school",
    "attribution": "«Ces données géographiques proviennent du Référentiel Géographique Commun (www.rgc.cd).»",
    "name": "Ecole primaire Kananyama",
    "school:CD": "primaire",
    "source": "GPS",
    "source:date": "2008/12/12",
    "source_ref": "www.rgc.cd"
  }
},
{
  "type": "node",
  "id": 1238147311,
  "lat": -2.1640944,
  "lon": 29.0770917,
  "tags": {
    "amenity": "school",
    "attribution": "«Ces données géographiques proviennent du Référentiel Géographique Commun (www.rgc.cd).»",
    "name": "Ecole secondaire Inst Bwando",
    "source": "GPS",
    "source:date": "2008/11/25",
    "source_ref": "www.rgc.cd"
  }
},
{
  "type": "node",
  "id": 1238147313,
  "lat": -1.9231069,
  "lon": 28.9453085,
  "tags": {
    "amenity": "school",
    "attribution": "«Ces données géographiques proviennent du Référentiel Géographique Commun (www.rgc.cd).»",
    "name": "Ecole secondaire Inst Rehema",
    "source": "GPS",
    "source:date": "2008/12/17",
    "source_ref": "www.rgc.cd"
  }
},
{
  "type": "node",
  "id": 1238147317,
  "lat": -2.3548056,
  "lon": 28.9250000,
  "tags": {
    "amenity": "school",
    "attribution": "«Ces données géographiques proviennent du Référentiel Géographique Commun (www.rgc.cd).»",
    "name": "Ecole primaire Ibinja",
    "name:en": "Ibinja Primary School",
    "name:fr": "Ecole primaire Ibinja",
    "school:CD": "primaire",
    "source": "GPS",
    "source:date": "2008/11/21",
    "source_ref": "www.rgc.cd"
  }
},
{
  "type": "node",
  "id": 1238147320,
  "lat": -1.9913311,
  "lon": 29.0828210,
  "tags": {
    "amenity": "school",
    "name": "École primaire Kamole"
  }
},
{
  "type": "node",
  "id": 1238147324,
  "lat": -1.9453575,
  "lon": 29.0806235,
  "tags": {
    "amenity": "school",
    "name": "École primaire Buyumbu"
  }
},
{
  "type": "node",
  "id": 1238147326,
  "lat": -2.1327028,
  "lon": 28.8898861,
  "tags": {
    "amenity": "school",
    "attribution": "«Ces données géographiques proviennent du Référentiel Géographique Commun (www.rgc.cd).»",
    "name": "Ecole secondaire Inst Mabula/ihoka",
    "source": "GPS",
    "source:date": "2008/11/25",
    "source_ref": "www.rgc.cd"
  }
},
{
  "type": "node",
  "id": 1238147339,
  "lat": -2.1332361,
  "lon": 28.8895556,
  "tags": {
    "amenity": "school",
    "attribution": "«Ces données géographiques proviennent du Référentiel Géographique Commun (www.rgc.cd).»",
    "name": "Ecole primaire Karambi",
    "school:CD": "primaire",
    "source": "GPS",
    "source:date": "2008/11/25",
    "source_ref": "www.rgc.cd"
  }
},
{
  "type": "node",
  "id": 1238147346,
  "lat": -2.1906694,
  "lon": 29.0510667,
  "tags": {
    "amenity": "school",
    "attribution": "«Ces données géographiques proviennent du Référentiel Géographique Commun (www.rgc.cd).»",
    "name": "Ecole secondaire Inst Kihumba Jean Charles Magabe",
    "source": "GPS",
    "source:date": "2008/12/04",
    "source_ref": "www.rgc.cd"
  }
},
{
  "type": "node",
  "id": 1238147354,
  "lat": -2.1525833,
  "lon": 28.8923611,
  "tags": {
    "amenity": "school",
    "attribution": "«Ces données géographiques proviennent du Référentiel Géographique Commun (www.rgc.cd).»",
    "name": "École primaire Kadjucu",
    "school:CD": "primaire",
    "source": "GPS",
    "source:date": "2010/04/21",
    "source_ref": "www.rgc.cd"
  }
},
{
  "type": "node",
  "id": 1238147355,
  "lat": -2.1449611,
  "lon": 29.0270583,
  "tags": {
    "amenity": "school",
    "attribution": "«Ces données géographiques proviennent du Référentiel Géographique Commun (www.rgc.cd).»",
    "name": "Ecole secondaire Inst Kabugo",
    "source": "GPS",
    "source:date": "2008/11/26",
    "source_ref": "www.rgc.cd"
  }
},
{
  "type": "node",
  "id": 1238147356,
  "lat": -1.9433472,
  "lon": 29.0965722,
  "tags": {
    "amenity": "school",
    "attribution": "«Ces données géographiques proviennent du Référentiel Géographique Commun (www.rgc.cd).»",
    "name": "Ecole secondaire Inst Condo",
    "source": "GPS",
    "source:date": "2008/11/18",
    "source_ref": "www.rgc.cd"
  }
},
{
  "type": "node",
  "id": 1238147362,
  "lat": -2.2325778,
  "lon": 28.8922000,
  "tags": {
    "amenity": "school",
    "attribution": "«Ces données géographiques proviennent du Référentiel Géographique Commun (www.rgc.cd).»",
    "name": "École primaire Ayagirwe",
    "school:CD": "primaire",
    "source": "GPS",
    "source:date": "2008/11/22",
    "source_ref": "www.rgc.cd"
  }
},
{
  "type": "node",
  "id": 1238147366,
  "lat": -2.2369333,
  "lon": 29.0542056,
  "tags": {
    "amenity": "school",
    "attribution": "«Ces données géographiques proviennent du Référentiel Géographique Commun (www.rgc.cd).»",
    "name": "École primaire Eureka Jesus",
    "school:CD": "primaire",
    "source": "GPS",
    "source:date": "2008/12/11",
    "source_ref": "www.rgc.cd"
  }
},
{
  "type": "node",
  "id": 1238147367,
  "lat": -1.9914194,
  "lon": 29.0472778,
  "tags": {
    "amenity": "school",
    "attribution": "«Ces données géographiques proviennent du Référentiel Géographique Commun (www.rgc.cd).»",
    "name": "Ecole primaire Nyangola",
    "school:CD": "primaire",
    "source": "GPS",
    "source:date": "2008/11/21",
    "source_ref": "www.rgc.cd"
  }
},
{
  "type": "node",
  "id": 1238147375,
  "lat": -2.0590007,
  "lon": 29.0543466,
  "tags": {
    "amenity": "school",
    "attribution": "«Ces données géographiques proviennent du Référentiel Géographique Commun (www.rgc.cd).»",
    "name": "Centre d'alphabetistion Bumpeta",
    "source": "GPS",
    "source:date": "2008/11/08",
    "source_ref": "www.rgc.cd"
  }
},
{
  "type": "node",
  "id": 1238147377,
  "lat": -1.9104333,
  "lon": 28.9754250,
  "tags": {
    "amenity": "school",
    "attribution": "«Ces données géographiques proviennent du Référentiel Géographique Commun (www.rgc.cd).»",
    "name": "Ecole primaire Makengere",
    "school:CD": "primaire",
    "source": "GPS",
    "source:date": "2008/11/12",
    "source_ref": "www.rgc.cd"
  }
},
{
  "type": "node",
  "id": 1238147381,
  "lat": -2.0966722,
  "lon": 28.9028028,
  "tags": {
    "amenity": "school",
    "attribution": "«Ces données géographiques proviennent du Référentiel Géographique Commun (www.rgc.cd).»",
    "name": "Ecole secondaire Inst Umoja",
    "source": "GPS",
    "source:date": "2008/11/23",
    "source_ref": "www.rgc.cd"
  }
},
{
  "type": "node",
  "id": 1238147388,
  "lat": -2.2066528,
  "lon": 29.0750417,
  "tags": {
    "amenity": "school",
    "attribution": "«Ces données géographiques proviennent du Référentiel Géographique Commun (www.rgc.cd).»",
    "name": "Ecole secondaire Inst Bushake",
    "source": "GPS",
    "source:date": "2008/11/27",
    "source_ref": "www.rgc.cd"
  }
},
{
  "type": "node",
  "id": 1238147393,
  "lat": -2.1796194,
  "lon": 29.0778528,
  "tags": {
    "amenity": "school",
    "attribution": "«Ces données géographiques proviennent du Référentiel Géographique Commun (www.rgc.cd).»",
    "name": "Ecole primaire Bukere II",
    "school:CD": "primaire",
    "source": "GPS",
    "source:date": "2008/12/05",
    "source_ref": "www.rgc.cd"
  }
},
{
  "type": "node",
  "id": 1238147398,
  "lat": -1.9652489,
  "lon": 29.1015395,
  "tags": {
    "amenity": "school",
    "name": "École primaire Shuve"
  }
},
{
  "type": "node",
  "id": 1238147403,
  "lat": -2.2163222,
  "lon": 29.0214306,
  "tags": {
    "amenity": "school",
    "attribution": "«Ces données géographiques proviennent du Référentiel Géographique Commun (www.rgc.cd).»",
    "name": "École primaire Muliano",
    "school:CD": "primaire",
    "source": "GPS",
    "source:date": "2008/12/02",
    "source_ref": "www.rgc.cd"
  }
},
{
  "type": "node",
  "id": 1238147418,
  "lat": -2.0388500,
  "lon": 29.0788707,
  "tags": {
    "amenity": "school",
    "attribution": "«Ces données géographiques proviennent du Référentiel Géographique Commun (www.rgc.cd).»",
    "name": "Ecole primaire Tchabalamba",
    "school:CD": "primaire",
    "source": "GPS",
    "source:date": "2008/11/20",
    "source_ref": "www.rgc.cd"
  }
},
{
  "type": "node",
  "id": 1238147419,
  "lat": -2.1721667,
  "lon": 28.8665556,
  "tags": {
    "amenity": "school",
    "attribution": "«Ces données géographiques proviennent du Référentiel Géographique Commun (www.rgc.cd).»",
    "name": "Ecole primaire Ihimbi",
    "school:CD": "primaire",
    "source": "GPS",
    "source:date": "2010/04/21",
    "source_ref": "www.rgc.cd"
  }
},
{
  "type": "node",
  "id": 1238147428,
  "lat": -1.9636815,
  "lon": 29.0844284,
  "tags": {
    "amenity": "school",
    "attribution": "«Ces données géographiques proviennent du Référentiel Géographique Commun (www.rgc.cd).»",
    "name": "Ecole primaire Kishenyi",
    "school:CD": "primaire",
    "source": "GPS",
    "source:date": "2008/11/19",
    "source_ref": "www.rgc.cd"
  }
},
{
  "type": "node",
  "id": 1238147430,
  "lat": -2.1625556,
  "lon": 29.0135639,
  "tags": {
    "amenity": "school",
    "attribution": "«Ces données géographiques proviennent du Référentiel Géographique Commun (www.rgc.cd).»",
    "name": "Ecole secondaire Inst Buzibu",
    "source": "GPS",
    "source:date": "2008/12/03",
    "source_ref": "www.rgc.cd"
  }
},
{
  "type": "node",
  "id": 1238147438,
  "lat": -2.1380789,
  "lon": 29.0994842,
  "tags": {
    "amenity": "school",
    "attribution": "«Ces données géographiques proviennent du Référentiel Géographique Commun (www.rgc.cd).»",
    "name": "Ecole primaire Buhoro",
    "school:CD": "primaire",
    "source": "GPS",
    "source:date": "2008/11/24",
    "source_ref": "www.rgc.cd"
  }
},
{
  "type": "node",
  "id": 1238147444,
  "lat": -2.0462722,
  "lon": 29.0939444,
  "tags": {
    "amenity": "school",
    "attribution": "«Ces données géographiques proviennent du Référentiel Géographique Commun (www.rgc.cd).»",
    "name": "Ecole secondaire Inst Bukinanyana",
    "source": "GPS",
    "source:date": "2008/11/16",
    "source_ref": "www.rgc.cd"
  }
},
{
  "type": "node",
  "id": 1238147447,
  "lat": -2.2098556,
  "lon": 29.0761389,
  "tags": {
    "amenity": "school",
    "attribution": "«Ces données géographiques proviennent du Référentiel Géographique Commun (www.rgc.cd).»",
    "name": "Ecole secondaire Inst Karambi",
    "source": "GPS",
    "source:date": "2008/11/27",
    "source_ref": "www.rgc.cd"
  }
},
{
  "type": "node",
  "id": 1238147450,
  "lat": -2.1313389,
  "lon": 28.8678722,
  "tags": {
    "amenity": "school",
    "attribution": "«Ces données géographiques proviennent du Référentiel Géographique Commun (www.rgc.cd).»",
    "name": "Ecole primaire Sinaé 55é Cebce",
    "school:CD": "primaire",
    "source": "GPS",
    "source:date": "2008/11/25",
    "source_ref": "www.rgc.cd"
  }
},
{
  "type": "node",
  "id": 1238147453,
  "lat": -2.0082278,
  "lon": 29.0925444,
  "tags": {
    "amenity": "school",
    "attribution": "«Ces données géographiques proviennent du Référentiel Géographique Commun (www.rgc.cd).»",
    "name": "École primaire Rusengesi",
    "school:CD": "primaire",
    "source": "GPS",
    "source:date": "2008/11/19",
    "source_ref": "www.rgc.cd"
  }
},
{
  "type": "node",
  "id": 1238147457,
  "lat": -1.9223444,
  "lon": 28.9387111,
  "tags": {
    "amenity": "school",
    "attribution": "«Ces données géographiques proviennent du Référentiel Géographique Commun (www.rgc.cd).»",
    "name": "Ecole primaire Galiga",
    "school:CD": "primaire",
    "source": "GPS",
    "source:date": "2008/11/13",
    "source_ref": "www.rgc.cd"
  }
},
{
  "type": "node",
  "id": 1238147464,
  "lat": -2.2549944,
  "lon": 29.0425389,
  "tags": {
    "amenity": "school",
    "attribution": "«Ces données géographiques proviennent du Référentiel Géographique Commun (www.rgc.cd).»",
    "name": "Ecole primaire Bihembe",
    "school:CD": "primaire",
    "source": "GPS",
    "source:date": "2008/12/12",
    "source_ref": "www.rgc.cd"
  }
},
{
  "type": "node",
  "id": 1238147476,
  "lat": -1.9908694,
  "lon": 29.0468472,
  "tags": {
    "amenity": "school",
    "attribution": "«Ces données géographiques proviennent du Référentiel Géographique Commun (www.rgc.cd).»",
    "name": "Ecole primaire Nyamuhiva",
    "school:CD": "primaire",
    "source": "GPS",
    "source:date": "2008/11/21",
    "source_ref": "www.rgc.cd"
  }
},
{
  "type": "node",
  "id": 1238147499,
  "lat": -2.1465556,
  "lon": 29.1001222,
  "tags": {
    "amenity": "school",
    "attribution": "«Ces données géographiques proviennent du Référentiel Géographique Commun (www.rgc.cd).»",
    "name": "Ecole secondaire Inst Buhoro Ii",
    "source": "GPS",
    "source:date": "2008/11/24",
    "source_ref": "www.rgc.cd"
  }
},
{
  "type": "node",
  "id": 1238147507,
  "lat": -2.1800105,
  "lon": 29.0136644,
  "tags": {
    "amenity": "school",
    "name": "École primaire Bushatiro"
  }
},
{
  "type": "node",
  "id": 1238147508,
  "lat": -1.9552987,
  "lon": 28.9214029,
  "tags": {
    "amenity": "school",
    "attribution": "«Ces données géographiques proviennent du Référentiel Géographique Commun (www.rgc.cd).»",
    "name": "École primaire Lwasi",
    "school:CD": "primaire",
    "source": "GPS",
    "source:date": "2008/12/01",
    "source_ref": "www.rgc.cd"
  }
},
{
  "type": "node",
  "id": 1238147513,
  "lat": -2.0983472,
  "lon": 28.9255611,
  "tags": {
    "amenity": "school",
    "attribution": "«Ces données géographiques proviennent du Référentiel Géographique Commun (www.rgc.cd).»",
    "name": "Ecole secondaire Inst Ruhagara",
    "source": "GPS",
    "source:date": "2008/11/26",
    "source_ref": "www.rgc.cd"
  }
},
{
  "type": "node",
  "id": 1238147517,
  "lat": -2.0423806,
  "lon": 29.0903083,
  "tags": {
    "amenity": "school",
    "attribution": "«Ces données géographiques proviennent du Référentiel Géographique Commun (www.rgc.cd).»",
    "name": "Ecole primaire Bweshu",
    "school:CD": "primaire",
    "source": "GPS",
    "source:date": "2008/11/18",
    "source_ref": "www.rgc.cd"
  }
},
{
  "type": "node",
  "id": 1238147526,
  "lat": -2.1867861,
  "lon": 29.0666028,
  "tags": {
    "amenity": "school",
    "attribution": "«Ces données géographiques proviennent du Référentiel Géographique Commun (www.rgc.cd).»",
    "name": "École primaire Lwamarulo",
    "school:CD": "primaire",
    "source": "GPS",
    "source:date": "2008/11/26",
    "source_ref": "www.rgc.cd"
  }
},
{
  "type": "node",
  "id": 1238147531,
  "lat": -2.2295056,
  "lon": 28.8919917,
  "tags": {
    "amenity": "school",
    "attribution": "«Ces données géographiques proviennent du Référentiel Géographique Commun (www.rgc.cd).»",
    "name": "Ecole primaire Iko 3é Cbk",
    "school:CD": "primaire",
    "source": "GPS",
    "source:date": "2008/11/22",
    "source_ref": "www.rgc.cd"
  }
},
{
  "type": "node",
  "id": 1238147539,
  "lat": -2.0230194,
  "lon": 29.1029389,
  "tags": {
    "amenity": "school",
    "attribution": "«Ces données géographiques proviennent du Référentiel Géographique Commun (www.rgc.cd).»",
    "name": "Ecole secondaire Muhungwe",
    "source": "GPS",
    "source:date": "2008/11/19",
    "source_ref": "www.rgc.cd"
  }
},
{
  "type": "node",
  "id": 1238147540,
  "lat": -2.0017583,
  "lon": 29.0891972,
  "tags": {
    "amenity": "school",
    "attribution": "«Ces données géographiques proviennent du Référentiel Géographique Commun (www.rgc.cd).»",
    "name": "Ecole primaire Karawa",
    "school:CD": "primaire",
    "source": "GPS",
    "source:date": "2008/11/19",
    "source_ref": "www.rgc.cd"
  }
},
{
  "type": "node",
  "id": 1238147549,
  "lat": -2.1864301,
  "lon": 29.0051980,
  "tags": {
    "amenity": "school",
    "attribution": "«Ces données géographiques proviennent du Référentiel Géographique Commun (www.rgc.cd).»",
    "name": "Ecole primaire Lukpfu",
    "school:CD": "primaire",
    "source": "GPS",
    "source:date": "2008/12/03",
    "source_ref": "www.rgc.cd"
  }
},
{
  "type": "node",
  "id": 1238147550,
  "lat": -2.2793472,
  "lon": 29.0227583,
  "tags": {
    "amenity": "school",
    "attribution": "«Ces données géographiques proviennent du Référentiel Géographique Commun (www.rgc.cd).»",
    "name": "Ecole primaire Muhumba",
    "school:CD": "primaire",
    "source": "GPS",
    "source:date": "2008/12/11",
    "source_ref": "www.rgc.cd"
  }
},
{
  "type": "node",
  "id": 1238147560,
  "lat": -2.1631778,
  "lon": 29.0828889,
  "tags": {
    "amenity": "school",
    "attribution": "«Ces données géographiques proviennent du Référentiel Géographique Commun (www.rgc.cd).»",
    "name": "Ecole secondaire Nyamusiga",
    "source": "GPS",
    "source:date": "2008/11/25",
    "source_ref": "www.rgc.cd"
  }
},
{
  "type": "node",
  "id": 1238147569,
  "lat": -1.9427056,
  "lon": 29.0975167,
  "tags": {
    "amenity": "school",
    "attribution": "«Ces données géographiques proviennent du Référentiel Géographique Commun (www.rgc.cd).»",
    "name": "Ecole primaire Condo",
    "school:CD": "primaire",
    "source": "GPS",
    "source:date": "2008/11/18",
    "source_ref": "www.rgc.cd"
  }
},
{
  "type": "node",
  "id": 1238147571,
  "lat": -1.9200611,
  "lon": 28.9401528,
  "tags": {
    "amenity": "school",
    "attribution": "«Ces données géographiques proviennent du Référentiel Géographique Commun (www.rgc.cd).»",
    "name": "Ecole primaire Nyonge",
    "school:CD": "primaire",
    "source": "GPS",
    "source:date": "2008/11/12",
    "source_ref": "www.rgc.cd"
  }
},
{
  "type": "node",
  "id": 1238147581,
  "lat": -1.9777889,
  "lon": 29.0514472,
  "tags": {
    "amenity": "school",
    "attribution": "«Ces données géographiques proviennent du Référentiel Géographique Commun (www.rgc.cd).»",
    "name": "Ecole secondaire Inst Bushusha",
    "source": "GPS",
    "source:date": "2008/11/20",
    "source_ref": "www.rgc.cd"
  }
},
{
  "type": "node",
  "id": 1238147591,
  "lat": -2.0225444,
  "lon": 29.1030361,
  "tags": {
    "amenity": "school",
    "attribution": "«Ces données géographiques proviennent du Référentiel Géographique Commun (www.rgc.cd).»",
    "name": "Ecole primaire Bukumbi",
    "school:CD": "primaire",
    "source": "GPS",
    "source:date": "2008/11/19",
    "source_ref": "www.rgc.cd"
  }
},
{
  "type": "node",
  "id": 1238147592,
  "lat": -2.2621861,
  "lon": 29.0268222,
  "tags": {
    "amenity": "school",
    "attribution": "«Ces données géographiques proviennent du Référentiel Géographique Commun (www.rgc.cd).»",
    "name": "Ecole secondaire Inst Umoja",
    "source": "GPS",
    "source:date": "2008/12/11",
    "source_ref": "www.rgc.cd"
  }
},
{
  "type": "node",
  "id": 1238147599,
  "lat": -2.3637778,
  "lon": 28.9280750,
  "tags": {
    "amenity": "school",
    "attribution": "«Ces données géographiques proviennent du Référentiel Géographique Commun (www.rgc.cd).»",
    "name": "École primaire Lubiri",
    "name:en": "Lubiri Primary School",
    "name:fr": "École primaire Lubiri",
    "school:CD": "primaire",
    "source": "GPS",
    "source:date": "2008/11/21",
    "source_ref": "www.rgc.cd"
  }
},
{
  "type": "node",
  "id": 1238147601,
  "lat": -2.2546861,
  "lon": 29.0404889,
  "tags": {
    "amenity": "school",
    "attribution": "«Ces données géographiques proviennent du Référentiel Géographique Commun (www.rgc.cd).»",
    "name": "Ecole primaire Bihembe",
    "school:CD": "primaire",
    "source": "GPS",
    "source:date": "2008/12/11",
    "source_ref": "www.rgc.cd"
  }
},
{
  "type": "node",
  "id": 1238147602,
  "lat": -2.1682528,
  "lon": 29.0560444,
  "tags": {
    "amenity": "school",
    "attribution": "«Ces données géographiques proviennent du Référentiel Géographique Commun (www.rgc.cd).»",
    "name": "École primaire Bubinga",
    "school:CD": "primaire",
    "source": "GPS",
    "source:date": "2008/12/03",
    "source_ref": "www.rgc.cd"
  }
},
{
  "type": "node",
  "id": 1238147610,
  "lat": -2.1308972,
  "lon": 28.8676639,
  "tags": {
    "amenity": "school",
    "attribution": "«Ces données géographiques proviennent du Référentiel Géographique Commun (www.rgc.cd).»",
    "name": "Ecole secondaire Inst Tchofi",
    "source": "GPS",
    "source:date": "2008/11/25",
    "source_ref": "www.rgc.cd"
  }
},
{
  "type": "node",
  "id": 1238147613,
  "lat": -2.0898139,
  "lon": 29.0706722,
  "tags": {
    "amenity": "school",
    "attribution": "«Ces données géographiques proviennent du Référentiel Géographique Commun (www.rgc.cd).»",
    "name": "Ecole secondaire Inst Kamiro",
    "source": "GPS",
    "source:date": "2008/11/15",
    "source_ref": "www.rgc.cd"
  }
},
{
  "type": "node",
  "id": 1238147624,
  "lat": -2.1673796,
  "lon": 29.0782897,
  "tags": {
    "amenity": "school",
    "attribution": "«Ces données géographiques proviennent du Référentiel Géographique Commun (www.rgc.cd).»",
    "name": "Ecole secondaire Moria",
    "source": "GPS",
    "source:date": "2008/11/25",
    "source_ref": "www.rgc.cd"
  }
},
{
  "type": "node",
  "id": 1238147633,
  "lat": -1.9618029,
  "lon": 29.0723494,
  "tags": {
    "amenity": "school",
    "attribution": "«Ces données géographiques proviennent du Référentiel Géographique Commun (www.rgc.cd).»",
    "name": "Ecole secondaire Inst Kanziraboba",
    "source": "GPS",
    "source:date": "2008/11/20",
    "source_ref": "www.rgc.cd"
  }
},
{
  "type": "node",
  "id": 1238147636,
  "lat": -2.1752121,
  "lon": 29.0529762,
  "tags": {
    "amenity": "school",
    "attribution": "«Ces données géographiques proviennent du Référentiel Géographique Commun (www.rgc.cd).»",
    "name": "École primaire Lubuye / Kanyongero",
    "school:CD": "primaire",
    "source": "GPS",
    "source:date": "2008/12/03",
    "source_ref": "www.rgc.cd"
  }
},
{
  "type": "node",
  "id": 1238147643,
  "lat": -2.1869000,
  "lon": 29.0731639,
  "tags": {
    "amenity": "school",
    "attribution": "«Ces données géographiques proviennent du Référentiel Géographique Commun (www.rgc.cd).»",
    "name": "Ecole secondaire Inst Mugote",
    "source": "GPS",
    "source:date": "2008/12/06",
    "source_ref": "www.rgc.cd"
  }
},
{
  "type": "node",
  "id": 1238147645,
  "lat": -1.9720972,
  "lon": 29.0558722,
  "tags": {
    "amenity": "school",
    "attribution": "«Ces données géographiques proviennent du Référentiel Géographique Commun (www.rgc.cd).»",
    "name": "École primaire Kimalamungo",
    "school:CD": "primaire",
    "source": "GPS",
    "source:date": "2008/11/20",
    "source_ref": "www.rgc.cd"
  }
},
{
  "type": "node",
  "id": 1238147653,
  "lat": -2.3637972,
  "lon": 28.9280806,
  "tags": {
    "amenity": "school",
    "attribution": "«Ces données géographiques proviennent du Référentiel Géographique Commun (www.rgc.cd).»",
    "name": "Ecole secondaire Inst Ibinja",
    "source": "GPS",
    "source:date": "2008/11/21",
    "source_ref": "www.rgc.cd"
  }
},
{
  "type": "node",
  "id": 1238147654,
  "lat": -2.0918333,
  "lon": 29.0524167,
  "tags": {
    "amenity": "school",
    "attribution": "«Ces données géographiques proviennent du Référentiel Géographique Commun (www.rgc.cd).»",
    "name": "École primaire Misimbwe",
    "school:CD": "primaire",
    "source": "GPS",
    "source:date": "2008/11/11",
    "source_ref": "www.rgc.cd"
  }
},
{
  "type": "node",
  "id": 1238147662,
  "lat": -1.9200194,
  "lon": 28.9372778,
  "tags": {
    "amenity": "school",
    "attribution": "«Ces données géographiques proviennent du Référentiel Géographique Commun (www.rgc.cd).»",
    "name": "Ecole secondaire Inst Nengapeta",
    "source": "GPS",
    "source:date": "2008/11/12",
    "source_ref": "www.rgc.cd"
  }
},
{
  "type": "node",
  "id": 1238147669,
  "lat": -2.0530194,
  "lon": 29.0990111,
  "tags": {
    "amenity": "university",
    "attribution": "«Ces données géographiques proviennent du Référentiel Géographique Commun (www.rgc.cd).»",
    "name": "Universite Unilai",
    "source": "GPS",
    "source:date": "2008/11/20",
    "source_ref": "www.rgc.cd"
  }
},
{
  "type": "node",
  "id": 1238147674,
  "lat": -2.2332222,
  "lon": 28.8920722,
  "tags": {
    "amenity": "school",
    "attribution": "«Ces données géographiques proviennent du Référentiel Géographique Commun (www.rgc.cd).»",
    "name": "Ecole secondaire Inst Iko",
    "source": "GPS",
    "source:date": "2008/11/22",
    "source_ref": "www.rgc.cd"
  }
},
{
  "type": "node",
  "id": 1238147698,
  "lat": -2.1748472,
  "lon": 29.0681722,
  "tags": {
    "amenity": "school",
    "attribution": "«Ces données géographiques proviennent du Référentiel Géographique Commun (www.rgc.cd).»",
    "name": "Ecole primaire Nyamusiru",
    "school:CD": "primaire",
    "source": "GPS",
    "source:date": "2008/11/26",
    "source_ref": "www.rgc.cd"
  }
},
{
  "type": "node",
  "id": 1238147707,
  "lat": -1.9356778,
  "lon": 29.0984028,
  "tags": {
    "amenity": "school",
    "attribution": "«Ces données géographiques proviennent du Référentiel Géographique Commun (www.rgc.cd).»",
    "name": "Ecole primaire Nyabwango",
    "school:CD": "primaire",
    "source": "GPS",
    "source:date": "2008/11/18",
    "source_ref": "www.rgc.cd"
  }
},
{
  "type": "node",
  "id": 1238147708,
  "lat": -2.2274457,
  "lon": 29.0236682,
  "tags": {
    "amenity": "school",
    "attribution": "«Ces données géographiques proviennent du Référentiel Géographique Commun (www.rgc.cd).»",
    "name": "Ecole secondaire Inst Kashofu",
    "source": "GPS",
    "source:date": "2008/12/10",
    "source_ref": "www.rgc.cd"
  }
},
{
  "type": "node",
  "id": 1238147721,
  "lat": -2.2150778,
  "lon": 29.0506278,
  "tags": {
    "amenity": "school",
    "attribution": "«Ces données géographiques proviennent du Référentiel Géographique Commun (www.rgc.cd).»",
    "name": "Ecole primaire Bukonje",
    "school:CD": "primaire",
    "source": "GPS",
    "source:date": "2008/12/11",
    "source_ref": "www.rgc.cd"
  }
},
{
  "type": "node",
  "id": 1238147739,
  "lat": -2.2361889,
  "lon": 29.0732778,
  "tags": {
    "amenity": "school",
    "attribution": "«Ces données géographiques proviennent du Référentiel Géographique Commun (www.rgc.cd).»",
    "name": "Ecole secondaire Inst Boza",
    "source": "GPS",
    "source:date": "2008/12/12",
    "source_ref": "www.rgc.cd"
  }
},
{
  "type": "node",
  "id": 1238147748,
  "lat": -2.0981028,
  "lon": 29.0745500,
  "tags": {
    "amenity": "school",
    "attribution": "«Ces données géographiques proviennent du Référentiel Géographique Commun (www.rgc.cd).»",
    "name": "École primaire Shindi",
    "school:CD": "primaire",
    "source": "GPS",
    "source:date": "2008/11/23",
    "source_ref": "www.rgc.cd"
  }
},
{
  "type": "node",
  "id": 1238147750,
  "lat": -2.0471556,
  "lon": 29.0862194,
  "tags": {
    "amenity": "school",
    "attribution": "«Ces données géographiques proviennent du Référentiel Géographique Commun (www.rgc.cd).»",
    "name": "Ecole primaire Bukinanyana",
    "school:CD": "primaire",
    "source": "GPS",
    "source:date": "2008/11/20",
    "source_ref": "www.rgc.cd"
  }
},
{
  "type": "node",
  "id": 1238147760,
  "lat": -1.9481541,
  "lon": 29.0877265,
  "tags": {
    "amenity": "school",
    "name": "École primaire Kihumba I"
  }
},
{
  "type": "node",
  "id": 1238147769,
  "lat": -2.0121056,
  "lon": 29.0846583,
  "tags": {
    "amenity": "school",
    "attribution": "«Ces données géographiques proviennent du Référentiel Géographique Commun (www.rgc.cd).»",
    "name": "Ecole primaire Mulamba",
    "school:CD": "primaire",
    "source": "GPS",
    "source:date": "2008/11/19",
    "source_ref": "www.rgc.cd"
  }
},
{
  "type": "node",
  "id": 1238147776,
  "lat": -1.8668998,
  "lon": 28.9913235,
  "tags": {
    "amenity": "school",
    "attribution": "«Ces données géographiques proviennent du Référentiel Géographique Commun (www.rgc.cd).»",
    "name": "École primaire Kiniezire",
    "school:CD": "primaire",
    "source": "GPS",
    "source:date": "2008/12/17",
    "source_ref": "www.rgc.cd"
  }
},
{
  "type": "node",
  "id": 1238147788,
  "lat": -2.2394661,
  "lon": 28.9830858,
  "tags": {
    "amenity": "school",
    "name": "École primaire Nyamizi"
  }
},
{
  "type": "node",
  "id": 1238147789,
  "lat": -1.9226889,
  "lon": 28.9364139,
  "tags": {
    "amenity": "school",
    "attribution": "«Ces données géographiques proviennent du Référentiel Géographique Commun (www.rgc.cd).»",
    "name": "Ecole primaire Mbinga",
    "school:CD": "primaire",
    "source": "GPS",
    "source:date": "2008/11/12",
    "source_ref": "www.rgc.cd"
  }
},
{
  "type": "node",
  "id": 1238147800,
  "lat": -2.2487694,
  "lon": 29.0706056,
  "tags": {
    "amenity": "school",
    "attribution": "«Ces données géographiques proviennent du Référentiel Géographique Commun (www.rgc.cd).»",
    "name": "Ecole primaire Sayuni",
    "school:CD": "primaire",
    "source": "GPS",
    "source:date": "2008/12/12",
    "source_ref": "www.rgc.cd"
  }
},
{
  "type": "node",
  "id": 1238147807,
  "lat": -2.0387000,
  "lon": 29.1134806,
  "tags": {
    "amenity": "school",
    "attribution": "«Ces données géographiques proviennent du Référentiel Géographique Commun (www.rgc.cd).»",
    "name": "Ecole primaire Kishumbu",
    "school:CD": "primaire",
    "source": "GPS",
    "source:date": "2008/11/19",
    "source_ref": "www.rgc.cd"
  }
},
{
  "type": "node",
  "id": 1238147812,
  "lat": -2.1563417,
  "lon": 29.1085306,
  "tags": {
    "amenity": "school",
    "attribution": "«Ces données géographiques proviennent du Référentiel Géographique Commun (www.rgc.cd).»",
    "name": "Ecole primaire Musama",
    "school:CD": "primaire",
    "source": "GPS",
    "source:date": "2008/11/24",
    "source_ref": "www.rgc.cd"
  }
},
{
  "type": "node",
  "id": 1238147816,
  "lat": -2.2058944,
  "lon": 29.0148722,
  "tags": {
    "amenity": "school",
    "attribution": "«Ces données géographiques proviennent du Référentiel Géographique Commun (www.rgc.cd).»",
    "name": "École primaire Buhumba",
    "school:CD": "primaire",
    "source": "GPS",
    "source:date": "2008/12/03",
    "source_ref": "www.rgc.cd"
  }
},
{
  "type": "node",
  "id": 1238147819,
  "lat": -1.9214761,
  "lon": 28.9402357,
  "tags": {
    "amenity": "school",
    "attribution": "«Ces données géographiques proviennent du Référentiel Géographique Commun (www.rgc.cd).»",
    "name": "Ecole primaire Musenyi",
    "school:CD": "primaire",
    "source": "GPS",
    "source:date": "2008/11/13",
    "source_ref": "www.rgc.cd"
  }
},
{
  "type": "node",
  "id": 1238147827,
  "lat": -2.2617778,
  "lon": 29.0263472,
  "tags": {
    "amenity": "school",
    "attribution": "«Ces données géographiques proviennent du Référentiel Géographique Commun (www.rgc.cd).»",
    "name": "Ecole primaire Kirutu",
    "school:CD": "primaire",
    "source": "GPS",
    "source:date": "2008/12/11",
    "source_ref": "www.rgc.cd"
  }
},
{
  "type": "node",
  "id": 1238147839,
  "lat": -2.1696250,
  "lon": 29.0380806,
  "tags": {
    "amenity": "school",
    "attribution": "«Ces données géographiques proviennent du Référentiel Géographique Commun (www.rgc.cd).»",
    "name": "Ecole secondaire Inst Muhyahya",
    "source": "GPS",
    "source:date": "2008/11/27",
    "source_ref": "www.rgc.cd"
  }
},
{
  "type": "node",
  "id": 1238147850,
  "lat": -2.2100944,
  "lon": 29.0764278,
  "tags": {
    "amenity": "school",
    "attribution": "«Ces données géographiques proviennent du Référentiel Géographique Commun (www.rgc.cd).»",
    "name": "Ecole primaire Karambi",
    "school:CD": "primaire",
    "source": "GPS",
    "source:date": "2008/11/27",
    "source_ref": "www.rgc.cd"
  }
},
{
  "type": "node",
  "id": 1238147852,
  "lat": -2.0255778,
  "lon": 29.0844611,
  "tags": {
    "amenity": "school",
    "attribution": "«Ces données géographiques proviennent du Référentiel Géographique Commun (www.rgc.cd).»",
    "name": "École primaire Bushonga",
    "school:CD": "primaire",
    "source": "GPS",
    "source:date": "2008/11/16",
    "source_ref": "www.rgc.cd"
  }
},
{
  "type": "node",
  "id": 1238147860,
  "lat": -2.1905162,
  "lon": 28.9931184,
  "tags": {
    "amenity": "school",
    "name": "École primaire Monvu"
  }
},
{
  "type": "node",
  "id": 1238147862,
  "lat": -2.0485957,
  "lon": 29.1068458,
  "tags": {
    "amenity": "school",
    "name": "École primaire Prolasa",
    "source": "GPS",
    "source:date": "2008/11/19",
    "source_ref": "www.rgc.cd"
  }
},
{
  "type": "node",
  "id": 1238147870,
  "lat": -2.0930028,
  "lon": 28.9199944,
  "tags": {
    "amenity": "school",
    "attribution": "«Ces données géographiques proviennent du Référentiel Géographique Commun (www.rgc.cd).»",
    "name": "École primaire Bushushu",
    "school:CD": "primaire",
    "source": "GPS",
    "source:date": "2008/11/26",
    "source_ref": "www.rgc.cd"
  }
},
{
  "type": "node",
  "id": 1238147871,
  "lat": -2.1451278,
  "lon": 29.1010611,
  "tags": {
    "amenity": "school",
    "attribution": "«Ces données géographiques proviennent du Référentiel Géographique Commun (www.rgc.cd).»",
    "name": "École primaire Sayuni",
    "school:CD": "primaire",
    "source": "GPS",
    "source:date": "2008/11/24",
    "source_ref": "www.rgc.cd"
  }
},
{
  "type": "node",
  "id": 1238147878,
  "lat": -2.1879972,
  "lon": 29.0549389,
  "tags": {
    "amenity": "school",
    "attribution": "«Ces données géographiques proviennent du Référentiel Géographique Commun (www.rgc.cd).»",
    "name": "École primaire Nyakibamba",
    "school:CD": "primaire",
    "source": "GPS",
    "source:date": "2008/12/03",
    "source_ref": "www.rgc.cd"
  }
},
{
  "type": "node",
  "id": 1238147896,
  "lat": -1.9451472,
  "lon": 29.0718222,
  "tags": {
    "amenity": "school",
    "attribution": "«Ces données géographiques proviennent du Référentiel Géographique Commun (www.rgc.cd).»",
    "name": "Ecole secondaire Inst Buyumbu",
    "source": "GPS",
    "source:date": "2008/11/18",
    "source_ref": "www.rgc.cd"
  }
},
{
  "type": "node",
  "id": 1238147903,
  "lat": -1.7076806,
  "lon": 29.0219528,
  "tags": {
    "amenity": "school",
    "attribution": "«Ces données géographiques proviennent du Référentiel Géographique Commun (www.rgc.cd).»",
    "name": "Centre d'alphabetistion Centre D'encadrement Des Enfants",
    "source": "GPS",
    "source:date": "2008/11/17",
    "source_ref": "www.rgc.cd"
  }
},
{
  "type": "node",
  "id": 1238147912,
  "lat": -2.1864231,
  "lon": 29.0286992,
  "tags": {
    "amenity": "school",
    "attribution": "«Ces données géographiques proviennent du Référentiel Géographique Commun (www.rgc.cd).»",
    "name": "École primaire Kaleba",
    "school:CD": "primaire",
    "source": "GPS",
    "source:date": "2008/11/27",
    "source_ref": "www.rgc.cd"
  }
},
{
  "type": "node",
  "id": 1238147917,
  "lat": -2.0465361,
  "lon": 29.0922861,
  "tags": {
    "amenity": "school",
    "attribution": "«Ces données géographiques proviennent du Référentiel Géographique Commun (www.rgc.cd).»",
    "name": "Ecole primaire Bukinanyana",
    "school:CD": "primaire",
    "source": "GPS",
    "source:date": "2008/11/16",
    "source_ref": "www.rgc.cd"
  }
},
{
  "type": "node",
  "id": 1238147922,
  "lat": -2.1522708,
  "lon": 29.0181695,
  "tags": {
    "amenity": "school",
    "attribution": "«Ces données géographiques proviennent du Référentiel Géographique Commun (www.rgc.cd).»",
    "name": "Ecole secondaire Inst Ihya",
    "source": "GPS",
    "source:date": "2008/11/26",
    "source_ref": "www.rgc.cd"
  }
},
{
  "type": "node",
  "id": 1238147926,
  "lat": -1.9214639,
  "lon": 28.9386722,
  "tags": {
    "amenity": "school",
    "attribution": "«Ces données géographiques proviennent du Référentiel Géographique Commun (www.rgc.cd).»",
    "name": "Ecole secondaire Inst Kizito",
    "source": "GPS",
    "source:date": "2008/11/13",
    "source_ref": "www.rgc.cd"
  }
},
{
  "type": "node",
  "id": 1238147931,
  "lat": -2.2286444,
  "lon": 29.0761028,
  "tags": {
    "amenity": "school",
    "attribution": "«Ces données géographiques proviennent du Référentiel Géographique Commun (www.rgc.cd).»",
    "name": "Ecole secondaire Inst Nkuvu",
    "source": "GPS",
    "source:date": "2008/12/02",
    "source_ref": "www.rgc.cd"
  }
},
{
  "type": "node",
  "id": 1238147943,
  "lat": -2.1524472,
  "lon": 29.0186833,
  "tags": {
    "amenity": "school",
    "attribution": "«Ces données géographiques proviennent du Référentiel Géographique Commun (www.rgc.cd).»",
    "name": "École primaire Casi",
    "school:CD": "primaire",
    "source": "GPS",
    "source:date": "2008/11/26",
    "source_ref": "www.rgc.cd"
  }
},
{
  "type": "node",
  "id": 1238147948,
  "lat": -2.0139222,
  "lon": 28.9071694,
  "tags": {
    "amenity": "school",
    "attribution": "«Ces données géographiques proviennent du Référentiel Géographique Commun (www.rgc.cd).»",
    "name": "Ecole primaire Mukoa",
    "school:CD": "primaire",
    "source": "GPS",
    "source:date": "2008/12/01",
    "source_ref": "www.rgc.cd"
  }
},
{
  "type": "node",
  "id": 1238147950,
  "lat": -2.1906706,
  "lon": 29.0761918,
  "tags": {
    "amenity": "school",
    "attribution": "«Ces données géographiques proviennent du Référentiel Géographique Commun (www.rgc.cd).»",
    "name": "Ecole primaire Bwiru",
    "school:CD": "primaire",
    "source": "GPS",
    "source:date": "2008/11/26",
    "source_ref": "www.rgc.cd"
  }
},
{
  "type": "node",
  "id": 1238147953,
  "lat": -2.1075083,
  "lon": 29.0547083,
  "tags": {
    "amenity": "school",
    "attribution": "«Ces données géographiques proviennent du Référentiel Géographique Commun (www.rgc.cd).»",
    "name": "Ecole primaire Kibanda",
    "school:CD": "primaire",
    "source": "GPS",
    "source:date": "2008/11/14",
    "source_ref": "www.rgc.cd"
  }
},
{
  "type": "node",
  "id": 1238147961,
  "lat": -2.2680528,
  "lon": 29.0442778,
  "tags": {
    "amenity": "school",
    "attribution": "«Ces données géographiques proviennent du Référentiel Géographique Commun (www.rgc.cd).»",
    "name": "Ecole primaire Gorho",
    "school:CD": "primaire",
    "source": "GPS",
    "source:date": "2008/12/11",
    "source_ref": "www.rgc.cd"
  }
},
{
  "type": "node",
  "id": 1238147968,
  "lat": -2.2491972,
  "lon": 29.0256250,
  "tags": {
    "amenity": "school",
    "attribution": "«Ces données géographiques proviennent du Référentiel Géographique Commun (www.rgc.cd).»",
    "name": "Ecole secondaire Inst Karhondo",
    "source": "GPS",
    "source:date": "2008/12/11",
    "source_ref": "www.rgc.cd"
  }
},
{
  "type": "node",
  "id": 1238147971,
  "lat": -2.2386583,
  "lon": 29.0679361,
  "tags": {
    "amenity": "school",
    "attribution": "«Ces données géographiques proviennent du Référentiel Géographique Commun (www.rgc.cd).»",
    "name": "Ecole primaire Bulundi",
    "school:CD": "primaire",
    "source": "GPS",
    "source:date": "2008/12/12",
    "source_ref": "www.rgc.cd"
  }
},
{
  "type": "node",
  "id": 1238147989,
  "lat": -2.0187361,
  "lon": 29.0925306,
  "tags": {
    "amenity": "school",
    "attribution": "«Ces données géographiques proviennent du Référentiel Géographique Commun (www.rgc.cd).»",
    "name": "École primaire Busobe",
    "school:CD": "primaire",
    "source": "GPS",
    "source:date": "2008/11/20",
    "source_ref": "www.rgc.cd"
  }
},
{
  "type": "node",
  "id": 1238147996,
  "lat": -2.1077306,
  "lon": 28.9193472,
  "tags": {
    "amenity": "school",
    "attribution": "«Ces données géographiques proviennent du Référentiel Géographique Commun (www.rgc.cd).»",
    "name": "Ecole primaire Kalehe",
    "school:CD": "primaire",
    "source": "GPS",
    "source:date": "2008/11/26",
    "source_ref": "www.rgc.cd"
  }
},
{
  "type": "node",
  "id": 1238148001,
  "lat": -2.1944389,
  "lon": 29.0525111,
  "tags": {
    "amenity": "school",
    "attribution": "«Ces données géographiques proviennent du Référentiel Géographique Commun (www.rgc.cd).»",
    "name": "Ecole primaire Kihumba",
    "school:CD": "primaire",
    "source": "GPS",
    "source:date": "2008/12/04",
    "source_ref": "www.rgc.cd"
  }
},
{
  "type": "node",
  "id": 1238148007,
  "lat": -2.1059361,
  "lon": 29.0370222,
  "tags": {
    "amenity": "school",
    "attribution": "«Ces données géographiques proviennent du Référentiel Géographique Commun (www.rgc.cd).»",
    "name": "Ecole secondaire Inst Mafula",
    "source": "GPS",
    "source:date": "2008/11/11",
    "source_ref": "www.rgc.cd"
  }
},
{
  "type": "node",
  "id": 1238148010,
  "lat": -1.8032139,
  "lon": 29.0071306,
  "tags": {
    "amenity": "school",
    "attribution": "«Ces données géographiques proviennent du Référentiel Géographique Commun (www.rgc.cd).»",
    "name": "Ecole primaire Nyamasasa",
    "school:CD": "primaire",
    "source": "GPS",
    "source:date": "2008/11/16",
    "source_ref": "www.rgc.cd"
  }
},
{
  "type": "node",
  "id": 1238148011,
  "lat": -2.1081722,
  "lon": 28.9195694,
  "tags": {
    "amenity": "school",
    "attribution": "«Ces données géographiques proviennent du Référentiel Géographique Commun (www.rgc.cd).»",
    "name": "Ecole secondaire Inst Tupendane",
    "source": "GPS",
    "source:date": "2008/11/26",
    "source_ref": "www.rgc.cd"
  }
},
{
  "type": "node",
  "id": 1238148018,
  "lat": -2.0907306,
  "lon": 29.0705028,
  "tags": {
    "amenity": "school",
    "attribution": "«Ces données géographiques proviennent du Référentiel Géographique Commun (www.rgc.cd).»",
    "name": "Ecole primaire Kamiro",
    "school:CD": "primaire",
    "source": "GPS",
    "source:date": "2008/11/15",
    "source_ref": "www.rgc.cd"
  }
},
{
  "type": "node",
  "id": 1238148021,
  "lat": -2.1362874,
  "lon": 29.0241449,
  "tags": {
    "amenity": "school",
    "attribution": "«Ces données géographiques proviennent du Référentiel Géographique Commun (www.rgc.cd).»",
    "name": "Ecole secondaire Inst Ereca",
    "source": "GPS",
    "source:date": "2008/11/26",
    "source_ref": "www.rgc.cd"
  }
},
{
  "type": "node",
  "id": 1238148028,
  "lat": -2.1306943,
  "lon": 28.8697240,
  "tags": {
    "amenity": "school",
    "attribution": "«Ces données géographiques proviennent du Référentiel Géographique Commun (www.rgc.cd).»",
    "name": "Ecole primaire Tchofi",
    "school:CD": "primaire",
    "source": "GPS",
    "source:date": "2008/11/25",
    "source_ref": "www.rgc.cd"
  }
},
{
  "type": "node",
  "id": 1238148031,
  "lat": -2.2413028,
  "lon": 29.0471278,
  "tags": {
    "amenity": "school",
    "attribution": "«Ces données géographiques proviennent du Référentiel Géographique Commun (www.rgc.cd).»",
    "name": "Ecole secondaire Inst Nyakalengwa",
    "source": "GPS",
    "source:date": "2008/12/11",
    "source_ref": "www.rgc.cd"
  }
},
{
  "type": "node",
  "id": 1238148042,
  "lat": -2.1955363,
  "lon": 29.0408361,
  "tags": {
    "amenity": "school",
    "name": "École primaire Kalehe"
  }
},
{
  "type": "node",
  "id": 1238148049,
  "lat": -2.1308444,
  "lon": 28.8699667,
  "tags": {
    "amenity": "school",
    "attribution": "«Ces données géographiques proviennent du Référentiel Géographique Commun (www.rgc.cd).»",
    "name": "Ecole secondaire Inst Ahadi",
    "source": "GPS",
    "source:date": "2008/11/25",
    "source_ref": "www.rgc.cd"
  }
},
{
  "type": "node",
  "id": 1238148056,
  "lat": -2.2254583,
  "lon": 29.0334750,
  "tags": {
    "amenity": "school",
    "attribution": "«Ces données géographiques proviennent du Référentiel Géographique Commun (www.rgc.cd).»",
    "name": "Ecole secondaire Inst Ziwa Kivu",
    "source": "GPS",
    "source:date": "2008/12/11",
    "source_ref": "www.rgc.cd"
  }
},
{
  "type": "node",
  "id": 1238148059,
  "lat": -2.1231778,
  "lon": 28.9151861,
  "tags": {
    "amenity": "school",
    "attribution": "«Ces données géographiques proviennent du Référentiel Géographique Commun (www.rgc.cd).»",
    "name": "Ecole secondaire Inst Lukifu",
    "source": "GPS",
    "source:date": "2008/11/24",
    "source_ref": "www.rgc.cd"
  }
},
{
  "type": "node",
  "id": 1238148063,
  "lat": -2.0525694,
  "lon": 29.0617778,
  "tags": {
    "amenity": "school",
    "attribution": "«Ces données géographiques proviennent du Référentiel Géographique Commun (www.rgc.cd).»",
    "name": "Ecole secondaire Inst Bugarula",
    "source": "GPS",
    "source:date": "2008/11/08",
    "source_ref": "www.rgc.cd"
  }
},
{
  "type": "node",
  "id": 1238148066,
  "lat": -2.1029806,
  "lon": 29.0629444,
  "tags": {
    "amenity": "school",
    "attribution": "«Ces données géographiques proviennent du Référentiel Géographique Commun (www.rgc.cd).»",
    "name": "Ecole primaire Kikunde",
    "school:CD": "primaire",
    "source": "GPS",
    "source:date": "2008/11/14",
    "source_ref": "www.rgc.cd"
  }
},
{
  "type": "node",
  "id": 1238148088,
  "lat": -1.9519462,
  "lon": 29.0622932,
  "tags": {
    "amenity": "school",
    "attribution": "«Ces données géographiques proviennent du Référentiel Géographique Commun (www.rgc.cd).»",
    "name": "Ecole primaire Ruvominka",
    "school:CD": "primaire",
    "source": "GPS",
    "source:date": "2008/11/18",
    "source_ref": "www.rgc.cd"
  }
},
{
  "type": "node",
  "id": 1238148090,
  "lat": -2.1991948,
  "lon": 29.0360536,
  "tags": {
    "amenity": "school",
    "name": "École primaire Nyabunyunyi"
  }
},
{
  "type": "node",
  "id": 1238148098,
  "lat": -2.2692250,
  "lon": 29.0209222,
  "tags": {
    "amenity": "school",
    "attribution": "«Ces données géographiques proviennent du Référentiel Géographique Commun (www.rgc.cd).»",
    "name": "Ecole primaire Kilala",
    "school:CD": "primaire",
    "source": "GPS",
    "source:date": "2008/12/11",
    "source_ref": "www.rgc.cd"
  }
},
{
  "type": "node",
  "id": 1238148108,
  "lat": -2.1348667,
  "lon": 28.8924056,
  "tags": {
    "amenity": "school",
    "attribution": "«Ces données géographiques proviennent du Référentiel Géographique Commun (www.rgc.cd).»",
    "name": "Ecole primaire Ihoka",
    "school:CD": "primaire",
    "source": "GPS",
    "source:date": "2008/11/25",
    "source_ref": "www.rgc.cd"
  }
},
{
  "type": "node",
  "id": 1238148111,
  "lat": -2.2258139,
  "lon": 29.0246306,
  "tags": {
    "amenity": "school",
    "attribution": "«Ces données géographiques proviennent du Référentiel Géographique Commun (www.rgc.cd).»",
    "name": "École primaire Kashofu",
    "school:CD": "primaire",
    "source": "GPS",
    "source:date": "2008/12/10",
    "source_ref": "www.rgc.cd"
  }
},
{
  "type": "node",
  "id": 1238148119,
  "lat": -2.2384472,
  "lon": 29.0676972,
  "tags": {
    "amenity": "school",
    "attribution": "«Ces données géographiques proviennent du Référentiel Géographique Commun (www.rgc.cd).»",
    "name": "Ecole secondaire Inst Kaduha",
    "source": "GPS",
    "source:date": "2008/12/12",
    "source_ref": "www.rgc.cd"
  }
},
{
  "type": "node",
  "id": 1238148121,
  "lat": -2.2080694,
  "lon": 29.0814889,
  "tags": {
    "amenity": "school",
    "attribution": "«Ces données géographiques proviennent du Référentiel Géographique Commun (www.rgc.cd).»",
    "name": "Ecole primaire Nkuvu",
    "school:CD": "primaire",
    "source": "GPS",
    "source:date": "2008/11/27",
    "source_ref": "www.rgc.cd"
  }
},
{
  "type": "node",
  "id": 1238148129,
  "lat": -1.9205611,
  "lon": 28.9382528,
  "tags": {
    "amenity": "school",
    "attribution": "«Ces données géographiques proviennent du Référentiel Géographique Commun (www.rgc.cd).»",
    "name": "Ecole primaire Nyabibwe",
    "school:CD": "primaire",
    "source": "GPS",
    "source:date": "2008/11/12",
    "source_ref": "www.rgc.cd"
  }
},
{
  "type": "node",
  "id": 1238148130,
  "lat": -2.0965444,
  "lon": 28.9049972,
  "tags": {
    "amenity": "school",
    "attribution": "«Ces données géographiques proviennent du Référentiel Géographique Commun (www.rgc.cd).»",
    "name": "Ecole primaire Munanira",
    "school:CD": "primaire",
    "source": "GPS",
    "source:date": "2008/11/23",
    "source_ref": "www.rgc.cd"
  }
},
{
  "type": "node",
  "id": 1238148137,
  "lat": -2.1212056,
  "lon": 29.0448944,
  "tags": {
    "amenity": "school",
    "attribution": "«Ces données géographiques proviennent du Référentiel Géographique Commun (www.rgc.cd).»",
    "name": "Ecole primaire Muleke",
    "school:CD": "primaire",
    "source": "GPS",
    "source:date": "2008/11/14",
    "source_ref": "www.rgc.cd"
  }
},
{
  "type": "node",
  "id": 1238148139,
  "lat": -2.0623083,
  "lon": 29.0555194,
  "tags": {
    "amenity": "school",
    "attribution": "«Ces données géographiques proviennent du Référentiel Géographique Commun (www.rgc.cd).»",
    "name": "Ecole primaire Bumpeta",
    "school:CD": "primaire",
    "source": "GPS",
    "source:date": "2008/11/08",
    "source_ref": "www.rgc.cd"
  }
},
{
  "type": "node",
  "id": 1238148150,
  "lat": -2.2386611,
  "lon": 28.8869806,
  "tags": {
    "amenity": "school",
    "attribution": "«Ces données géographiques proviennent du Référentiel Géographique Commun (www.rgc.cd).»",
    "name": "École primaire Lurila",
    "school:CD": "primaire",
    "source": "GPS",
    "source:date": "2008/11/22",
    "source_ref": "www.rgc.cd"
  }
},
{
  "type": "node",
  "id": 1238148151,
  "lat": -2.2045250,
  "lon": 29.0269139,
  "tags": {
    "amenity": "school",
    "attribution": "«Ces données géographiques proviennent du Référentiel Géographique Commun (www.rgc.cd).»",
    "name": "Ecole primaire Malinde",
    "school:CD": "primaire",
    "source": "GPS",
    "source:date": "2008/12/04",
    "source_ref": "www.rgc.cd"
  }
},
{
  "type": "node",
  "id": 1238148158,
  "lat": -2.3623889,
  "lon": 28.9327778,
  "tags": {
    "amenity": "school",
    "attribution": "«Ces données géographiques proviennent du Référentiel Géographique Commun (www.rgc.cd).»",
    "name": "Ecole primaire Nyamukandagwe",
    "name:en": "Nyamukandagwe Primary School",
    "name:fr": "Ecole primaire Nyamukandagwe",
    "school:CD": "primaire",
    "source": "GPS",
    "source:date": "2008/11/21",
    "source_ref": "www.rgc.cd"
  }
},
{
  "type": "node",
  "id": 1238148165,
  "lat": -2.0704558,
  "lon": 29.0668934,
  "tags": {
    "amenity": "school",
    "attribution": "«Ces données géographiques proviennent du Référentiel Géographique Commun (www.rgc.cd).»",
    "name": "Ecole primaire Bweramata",
    "school:CD": "primaire",
    "source": "GPS",
    "source:date": "2008/11/08",
    "source_ref": "www.rgc.cd"
  }
},
{
  "type": "node",
  "id": 1238148171,
  "lat": -2.0378806,
  "lon": 29.0923598,
  "tags": {
    "amenity": "school",
    "attribution": "«Ces données géographiques proviennent du Référentiel Géographique Commun (www.rgc.cd).»",
    "name": "École secondaire Inst Bweshu",
    "source": "GPS",
    "source:date": "2008/11/18",
    "source_ref": "www.rgc.cd"
  }
},
{
  "type": "node",
  "id": 1238148175,
  "lat": -2.1745611,
  "lon": 29.0342528,
  "tags": {
    "amenity": "school",
    "attribution": "«Ces données géographiques proviennent du Référentiel Géographique Commun (www.rgc.cd).»",
    "name": "Ecole secondaire Inst Mutunzi",
    "source": "GPS",
    "source:date": "2008/11/27",
    "source_ref": "www.rgc.cd"
  }
},
{
  "type": "node",
  "id": 1238148181,
  "lat": -2.2216778,
  "lon": 29.0801611,
  "tags": {
    "amenity": "school",
    "attribution": "«Ces données géographiques proviennent du Référentiel Géographique Commun (www.rgc.cd).»",
    "name": "Ecole primaire Cilala",
    "school:CD": "primaire",
    "source": "GPS",
    "source:date": "2008/12/02",
    "source_ref": "www.rgc.cd"
  }
},
{
  "type": "node",
  "id": 1238148192,
  "lat": -2.0605972,
  "lon": 28.9449611,
  "tags": {
    "amenity": "school",
    "attribution": "«Ces données géographiques proviennent du Référentiel Géographique Commun (www.rgc.cd).»",
    "name": "Centre d'alphabetistion Centre D'alphabetisation Pour Pigmes De Musinga",
    "source": "GPS",
    "source:date": "2008/11/26",
    "source_ref": "www.rgc.cd"
  }
},
{
  "type": "node",
  "id": 1238148196,
  "lat": -2.0953278,
  "lon": 29.0439778,
  "tags": {
    "amenity": "school",
    "attribution": "«Ces données géographiques proviennent du Référentiel Géographique Commun (www.rgc.cd).»",
    "name": "Ecole secondaire Inst Chikoma",
    "source": "GPS",
    "source:date": "2008/11/11",
    "source_ref": "www.rgc.cd"
  }
},
{
  "type": "node",
  "id": 1238148204,
  "lat": -2.0625083,
  "lon": 28.9448167,
  "tags": {
    "amenity": "school",
    "attribution": "«Ces données géographiques proviennent du Référentiel Géographique Commun (www.rgc.cd).»",
    "name": "Ecole primaire Musinga",
    "school:CD": "primaire",
    "source": "GPS",
    "source:date": "2008/11/26",
    "source_ref": "www.rgc.cd"
  }
},
{
  "type": "node",
  "id": 1238148208,
  "lat": -2.1145556,
  "lon": 28.9014444,
  "tags": {
    "amenity": "school",
    "attribution": "«Ces données géographiques proviennent du Référentiel Géographique Commun (www.rgc.cd).»",
    "name": "Ecole primaire Lwako",
    "school:CD": "primaire",
    "source": "GPS",
    "source:date": "2008/11/23",
    "source_ref": "www.rgc.cd"
  }
},
{
  "type": "node",
  "id": 1238148211,
  "lat": -2.1992472,
  "lon": 29.0357472,
  "tags": {
    "amenity": "school",
    "attribution": "«Ces données géographiques proviennent du Référentiel Géographique Commun (www.rgc.cd).»",
    "name": "École secondaire Institut Nyabunyunyi",
    "source": "GPS",
    "source:date": "2008/12/04",
    "source_ref": "www.rgc.cd"
  }
},
{
  "type": "node",
  "id": 1238148215,
  "lat": -1.9801000,
  "lon": 29.0683222,
  "tags": {
    "amenity": "school",
    "attribution": "«Ces données géographiques proviennent du Référentiel Géographique Commun (www.rgc.cd).»",
    "name": "École primaire Bukole",
    "school:CD": "primaire",
    "source": "GPS",
    "source:date": "2008/11/21",
    "source_ref": "www.rgc.cd"
  }
},
{
  "type": "node",
  "id": 1238148222,
  "lat": -2.2688056,
  "lon": 29.0202722,
  "tags": {
    "amenity": "school",
    "attribution": "«Ces données géographiques proviennent du Référentiel Géographique Commun (www.rgc.cd).»",
    "name": "Ecole secondaire Inst Kilala",
    "source": "GPS",
    "source:date": "2008/12/11",
    "source_ref": "www.rgc.cd"
  }
},
{
  "type": "node",
  "id": 1238148225,
  "lat": -2.1865500,
  "lon": 28.9958944,
  "tags": {
    "amenity": "school",
    "attribution": "«Ces données géographiques proviennent du Référentiel Géographique Commun (www.rgc.cd).»",
    "name": "Ecole primaire Hemura",
    "school:CD": "primaire",
    "source": "GPS",
    "source:date": "2008/12/03",
    "source_ref": "www.rgc.cd"
  }
},
{
  "type": "node",
  "id": 1238148228,
  "lat": -1.7885864,
  "lon": 28.8955320,
  "tags": {
    "amenity": "school",
    "attribution": "«Ces données géographiques proviennent du Référentiel Géographique Commun (www.rgc.cd).»",
    "name": "École primaire Mutuza",
    "school:CD": "primaire",
    "source": "GPS",
    "source:date": "2008/12/17",
    "source_ref": "www.rgc.cd"
  }
},
{
  "type": "node",
  "id": 1238148234,
  "lat": -2.2642694,
  "lon": 29.0606583,
  "tags": {
    "amenity": "school",
    "attribution": "«Ces données géographiques proviennent du Référentiel Géographique Commun (www.rgc.cd).»",
    "name": "Ecole primaire Kisunzu",
    "school:CD": "primaire",
    "source": "GPS",
    "source:date": "2008/12/12",
    "source_ref": "www.rgc.cd"
  }
},
{
  "type": "node",
  "id": 1238148237,
  "lat": -2.3549167,
  "lon": 28.9378056,
  "tags": {
    "amenity": "school",
    "attribution": "«Ces données géographiques proviennent du Référentiel Géographique Commun (www.rgc.cd).»",
    "name": "Ecole primaire Kadutu",
    "name:en": "Kadutu Primary School",
    "name:fr": "Ecole primaire Kadutu",
    "school:CD": "primaire",
    "source": "GPS",
    "source:date": "2008/11/21",
    "source_ref": "www.rgc.cd"
  }
},
{
  "type": "node",
  "id": 1356428105,
  "lat": -2.5800707,
  "lon": 28.8818150,
  "tags": {
    "amenity": "school",
    "fixme": "verify location",
    "name": "Primary School Myange"
  }
},
{
  "type": "node",
  "id": 1356492972,
  "lat": -2.3892458,
  "lon": 29.0027723,
  "tags": {
    "alt_name": "École primaire Shangi",
    "amenity": "school",
    "name": "Primary school Shangi",
    "name:en": "Primary school Shangi"
  }
},
{
  "type": "node",
  "id": 1578100959,
  "lat": -1.6915342,
  "lon": 29.2527012,
  "tags": {
    "amenity": "university",
    "name": "ULK",
    "name:en": "ULK",
    "wikidata": "Q22939326"
  }
},
{
  "type": "node",
  "id": 1679364235,
  "lat": -1.2415358,
  "lon": 29.9825119,
  "tags": {
    "amenity": "school",
    "isced:level": "1",
    "name": "Kigezi Primary School",
    "wikidata": "Q22672677"
  }
},
{
  "type": "node",
  "id": 1679364243,
  "lat": -1.2402953,
  "lon": 29.9833032,
  "tags": {
    "addr:city": "Rugarama",
    "addr:county": "Kabale Municipality",
    "addr:district": "Kabale",
    "addr:parish": "Kijuguta",
    "addr:subcounty": "Northern Division",
    "amenity": "school",
    "name": "Kigezi High School",
    "source": "www.ubos.org",
    "source:date": "2010..2014",
    "wikidata": "Q18388193",
    "wikipedia": "en:Kigezi High School"
  }
},
{
  "type": "node",
  "id": 1679541714,
  "lat": -1.2471077,
  "lon": 29.9799748,
  "tags": {
    "addr:city": "Rwakaraba A",
    "addr:county": "Kabale Municipality",
    "addr:district": "Kabale",
    "addr:parish": "Nyabikoni",
    "addr:subcounty": "Central Division",
    "amenity": "school",
    "isced:level": "1",
    "name": "Ainembabazi Primary School",
    "operator:type": "private",
    "source": "www.ubos.org",
    "source:date": "2010..2014",
    "wikidata": "Q22672715"
  }
},
{
  "type": "node",
  "id": 1701050253,
  "lat": -1.3009915,
  "lon": 29.9387159,
  "tags": {
    "amenity": "school"
  }
},
{
  "type": "node",
  "id": 1882697776,
  "lat": -1.9766974,
  "lon": 30.0512647,
  "tags": {
    "amenity": "school",
    "check_date": "2023-04-14",
    "name": "École Saint-Joseph",
    "name:en": "Saint-Joseph School",
    "name:fr": "École Saint-Joseph"
  }
},
{
  "type": "node",
  "id": 1882704830,
  "lat": -1.9499744,
  "lon": 30.0825833,
  "tags": {
    "amenity": "school",
    "name": "Don Bosco",
    "name:etymology": "Jean Bosco",
    "name:etymology:wikidata": "Q146183",
    "name:etymology:wikipedia": "fr:Jean Bosco",
    "name:fr": "Jean Bosco"
  }
},
{
  "type": "node",
  "id": 2148723162,
  "lat": -1.5041896,
  "lon": 29.6328785,
  "tags": {
    "amenity": "school",
    "name": "Excel Daycare and Nursery School",
    "name:en": "Excel Daycare and Nursery School",
    "name:fr": "Garderie et école maternelle Excel"
  }
},
{
  "type": "node",
  "id": 2155809685,
  "lat": -1.5503636,
  "lon": 29.6412635,
  "tags": {
    "amenity": "school",
    "name": "Rwanda Peace Academy",
    "name:fr": "Académie de la Paix au Rwanda"
  }
},
{
  "type": "node",
  "id": 2168865605,
  "lat": -1.9545818,
  "lon": 30.0638874,
  "tags": {
    "addr:city": "Kigali",
    "addr:postcode": "+250",
    "addr:street": "KN 73 Street",
    "addr:street:fr": "Rue KN 73",
    "amenity": "school",
    "name": "Ikaze Block",
    "name:fr": "Bloc Ikaze"
  }
},
{
  "type": "node",
  "id": 2168876405,
  "lat": -1.9612047,
  "lon": 30.0604818,
  "tags": {
    "amenity": "school",
    "check_date": "2023-04-19",
    "name": "Mount Kenya University Campus / Gitega",
    "name:en": "Mount Kenya University Campus / Gitega"
  }
},
{
  "type": "node",
  "id": 2168880747,
  "lat": -1.9323445,
  "lon": 30.1348703,
  "tags": {
    "amenity": "school"
  }
},
{
  "type": "node",
  "id": 2339102035,
  "lat": -2.8391365,
  "lon": 30.3448320,
  "tags": {
    "amenity": "school",
    "name": "E.P KINYOTA, UC Kinyota",
    "operational_status": "open",
    "operator:type": "government",
    "place:area_alternate": "Salle de classe",
    "project:eurosha_2012": "yes",
    "source": "Bing",
    "source:date": "2010"
  }
},
{
  "type": "node",
  "id": 2342364842,
  "lat": -1.9002088,
  "lon": 30.4414228,
  "tags": {
    "addr:city": "Rwamagana",
    "addr:street": "RN 3",
    "amenity": "school",
    "name": "Nsinda School",
    "name:en": "Nsinda School"
  }
},
{
  "type": "node",
  "id": 2343634229,
  "lat": -1.8879582,
  "lon": 30.4514465,
  "tags": {
    "addr:city": "Rwamagana",
    "amenity": "school",
    "name": "Kabare School",
    "name:en": "Kabare School"
  }
},
{
  "type": "node",
  "id": 2353439498,
  "lat": -1.5351847,
  "lon": 30.4051588,
  "tags": {
    "amenity": "school",
    "name": "CTC Gabiro"
  }
},
{
  "type": "node",
  "id": 2451817799,
  "lat": -2.5932347,
  "lon": 29.7169924,
  "tags": {
    "amenity": "school",
    "name": "Secondary School",
    "name:en": "Secondary School"
  }
},
{
  "type": "node",
  "id": 2567978713,
  "lat": -1.8961892,
  "lon": 30.2743357,
  "tags": {
    "amenity": "school",
    "name": "Ecole Primaire de Nyagasambu"
  }
},
{
  "type": "node",
  "id": 2655482031,
  "lat": -1.9138618,
  "lon": 30.0745218,
  "tags": {
    "amenity": "school",
    "name": "Fawe Girls School",
    "name:en": "Fawe Girls School"
  }
},
{
  "type": "node",
  "id": 3094431536,
  "lat": -1.9445849,
  "lon": 30.0895946,
  "tags": {
    "amenity": "university",
    "check_date": "2023-04-08",
    "internet_access": "yes",
    "internet_access:fee": "no",
    "name": "Carnegie Mellon University in Rwanda",
    "name:en": "Carnegie Mellon University in Rwanda",
    "name:fr": "Université Carnegie Mellon au Rwanda",
    "operator:type": "public"
  }
},
{
  "type": "node",
  "id": 3130327876,
  "lat": -2.5060507,
  "lon": 30.0231998,
  "tags": {
    "amenity": "school",
    "name": "Ishule"
  }
},
{
  "type": "node",
  "id": 3654571160,
  "lat": -1.2523470,
  "lon": 29.9975999,
  "tags": {
    "amenity": "school"
  }
},
{
  "type": "node",
  "id": 3654593110,
  "lat": -1.2043785,
  "lon": 29.8095075,
  "tags": {
    "addr:county": "Rubanda",
    "addr:district": "Kabale",
    "addr:parish": "Butare",
    "addr:subcounty": "Muko",
    "addr:village": "Murukoro",
    "amenity": "school",
    "isced:level": "2;3;4",
    "name": "Muko High School",
    "source": "www.ubos.org",
    "source:date": "2010..2014",
    "wikidata": "Q22936761"
  }
},
{
  "type": "node",
  "id": 3744065748,
  "lat": -1.2780355,
  "lon": 29.6957609,
  "tags": {
    "addr:county": "Bufumbira",
    "addr:district": "Kisoro",
    "addr:parish": "North Ward",
    "addr:subcounty": "Nothern Division",
    "addr:village": "Gishegera",
    "amenity": "school",
    "isced:level": "2;3;4",
    "name": "Seseme Girl's Secondary School",
    "operator:type": "government",
    "source": "www.ubos.org;HOT-Uganda",
    "source:date": "2010..2014",
    "wikidata": "Q22295121"
  }
},
{
  "type": "node",
  "id": 3750652556,
  "lat": -2.7472014,
  "lon": 29.0021571,
  "tags": {
    "amenity": "school"
  }
},
{
  "type": "node",
  "id": 3770220120,
  "lat": -1.9234797,
  "lon": 28.9368491,
  "tags": {
    "amenity": "school",
    "attribution": "«Ces données géographiques proviennent du Référentiel Géographique Commun (www.rgc.cd).»",
    "name": "Ecole primaire Kanyiga",
    "school:CD": "primaire",
    "source": "GPS",
    "source:date": "2008/11/12",
    "source_ref": "www.rgc.cd"
  }
},
{
  "type": "node",
  "id": 3826835752,
  "lat": -1.3189391,
  "lon": 29.9566181,
  "tags": {
    "addr:city": "Kashenyi",
    "addr:county": "Ndorwa",
    "addr:district": "Kabale",
    "addr:parish": "Katenga",
    "addr:subcounty": "Kamuganguzi",
    "amenity": "school",
    "isced:level": "1",
    "name": "Buhumba Primary School",
    "operator:type": "public",
    "source": "www.ubos.org",
    "source:date": "2010..2014",
    "wikidata": "Q22665970"
  }
},
{
  "type": "node",
  "id": 3827882580,
  "lat": -1.2921507,
  "lon": 29.9673287,
  "tags": {
    "addr:city": "Rukore",
    "addr:county": "Ndorwa",
    "addr:district": "Kabale",
    "addr:parish": "Bukoora",
    "addr:subcounty": "Kitumba",
    "alt_name": "Imkoora Primary School",
    "amenity": "school",
    "isced:level": "1",
    "name": "Rukole Primary School",
    "operator:type": "public",
    "source": "www.ubos.org",
    "source:date": "2010..2014",
    "wikidata": "Q22673658"
  }
},
{
  "type": "node",
  "id": 3832523179,
  "lat": -1.2483406,
  "lon": 29.9861529,
  "tags": {
    "amenity": "school",
    "isced:level": "0",
    "name": "University Nursery School",
    "wikidata": "Q22672660"
  }
},
{
  "type": "node",
  "id": 3833217583,
  "lat": -1.2399667,
  "lon": 29.9858523,
  "tags": {
    "addr:city": "Rugarama",
    "addr:county": "Kabale Municipality",
    "addr:district": "Kabale",
    "addr:parish": "Kijuguta",
    "addr:subcounty": "Northern Division",
    "amenity": "university",
    "isced:level": "2;3;4",
    "name": "Bishop Barham University College",
    "operator": "Uganda Christian University - Church of Uganda",
    "operator:type": "religious",
    "source": "www.ubos.org",
    "source:date": "2010..2014",
    "wikidata": "Q22672678"
  }
},
{
  "type": "node",
  "id": 3922012163,
  "lat": -1.2758234,
  "lon": 29.6973057,
  "tags": {
    "addr:county": "Bufumbira",
    "addr:district": "Kisoro",
    "addr:parish": "North Ward",
    "addr:subcounty": "Kisoro Town Council",
    "addr:village": "Gishegera",
    "amenity": "school",
    "isced:level": "1",
    "name": "Seseme Integrated Primary School",
    "operator:type": "government",
    "source": "www.ubos.org;HOT-Uganda",
    "source:date": "2010..2014",
    "wikidata": "Q22295281"
  }
},
{
  "type": "node",
  "id": 3925854598,
  "lat": -1.2867537,
  "lon": 29.6819141,
  "tags": {
    "amenity": "school",
    "isced:level": "1",
    "name": "Kabaya Model Primary School",
    "wikidata": "Q22295134"
  }
},
{
  "type": "node",
  "id": 3927375968,
  "lat": -1.2784672,
  "lon": 29.6946626,
  "tags": {
    "amenity": "college",
    "name": "Muhabura Vocational Training Centre",
    "operator": "Church of Uganda Muhabura Diocese"
  }
},
{
  "type": "node",
  "id": 3938107102,
  "lat": -1.1949500,
  "lon": 29.6901780,
  "tags": {
    "amenity": "school",
    "isced:level": "1",
    "name": "Lake Mutanda Community Primary School",
    "wikidata": "Q23722792"
  }
},
{
  "type": "node",
  "id": 3938107105,
  "lat": -1.2478822,
  "lon": 29.7135505,
  "tags": {
    "amenity": "school",
    "denomination": "baptist",
    "isced:level": "1",
    "name": "Matinza Baptist Primary School",
    "religion": "christian",
    "wikidata": "Q22672282"
  }
},
{
  "type": "node",
  "id": 3962064326,
  "lat": -1.3005683,
  "lon": 29.6913542,
  "tags": {
    "addr:county": "Bufumbira",
    "addr:district": "Kisoro",
    "addr:parish": "Mabungo",
    "addr:subcounty": "Nyarusiza",
    "addr:village": "Bikoro",
    "amenity": "school",
    "fixme": "Please, check the position of the node",
    "isced": "primary",
    "isced:level": "1",
    "name": "Bolero Primary School",
    "operator": "government",
    "operator:type": "public",
    "source": "HOT-Uganda",
    "source:date": "2010..2014",
    "toilets": "yes",
    "wikidata": "Q22294714"
  }
},
{
  "type": "node",
  "id": 3962064327,
  "lat": -1.3070945,
  "lon": 29.6450020,
  "tags": {
    "addr:county": "Bufumbira",
    "addr:district": "Kisoro",
    "addr:parish": "Muramba",
    "addr:subcounty": "Muramba",
    "addr:village": "Burere",
    "amenity": "school",
    "isced:level": "1",
    "name": "Bitare Primary School",
    "operator:type": "public",
    "source": "www.ubos.org;HOT-UG",
    "source:date": "2010..2014",
    "wikidata": "Q22294719"
  }
},
{
  "type": "node",
  "id": 3962064328,
  "lat": -1.2807723,
  "lon": 29.6611006,
  "tags": {
    "addr:county": "Bufumbira",
    "addr:district": "Kisoro",
    "addr:parish": "Rwaramba",
    "addr:subcounty": "Nyakinama",
    "addr:village": "Busera",
    "amenity": "kindergarten",
    "fixme": "Please, check the position of the node",
    "isced:level": "0",
    "name": "Bright Future Nursery School",
    "source": "www.ubos.org",
    "source:date": "2010..2014",
    "wikidata": "Q22294725"
  }
},
{
  "type": "node",
  "id": 3962064329,
  "lat": -1.3247205,
  "lon": 29.6209944,
  "tags": {
    "addr:county": "Bufumbira",
    "addr:district": "Kisoro",
    "addr:parish": "Gisozi",
    "addr:subcounty": "Muramba",
    "addr:village": "Bukazi",
    "amenity": "school",
    "capacity": "1150",
    "isced:level": "0;1",
    "location": "permanent",
    "name": "Bukazi Primary School",
    "opening_hours": "Mo-Fr 08:00-17:00",
    "operator:type": "public",
    "source": "www.ubos.org; HOT-UG",
    "source:date": "2010..2014",
    "staff_count:teachers": "16",
    "start_date": "1959-01-01",
    "wikidata": "Q22294608"
  }
},
{
  "type": "node",
  "id": 3962064330,
  "lat": -1.2930917,
  "lon": 29.6135253,
  "tags": {
    "addr:county": "Bufumbira",
    "addr:district": "Kisoro",
    "addr:parish": "Bunagana Town Board",
    "addr:subcounty": "Muramba",
    "addr:village": "Kibaya",
    "amenity": "kindergarten",
    "isced:level": "0;1",
    "name": "Bunagana Pride Nursery and Primary School",
    "operator:type": "private",
    "source": "www.ubos.org",
    "source:date": "2010..2014",
    "wikidata": "Q22294617"
  }
},
{
  "type": "node",
  "id": 3962064332,
  "lat": -1.3048742,
  "lon": 29.6536009,
  "tags": {
    "addr:county": "Bufumbira",
    "addr:district": "Kisoro",
    "addr:parish": "Muramba",
    "addr:subcounty": "Muramba",
    "addr:village": "Burere",
    "amenity": "school",
    "fixme": "Please, check the position of the node",
    "isced:level": "1",
    "name": "Burere Faith Community Primary School",
    "operator:type": "private",
    "source": "www.ubos.org",
    "source:date": "2010..2014",
    "wikidata": "Q22294669"
  }
},